[
  {
    "id": 150432,
    "name": "Arian Shahr",
    "state_id": 3930,
    "state_code": "29",
    "state_name": "South Khorasan",
    "country_id": 103,
    "country_code": "IR",
    "country_name": "Iran",
    "latitude": 33.3314692,
    "longitude": 59.2293441,
    "native": "آریان شاه",
    "timezone": "Asia/Tehran",
    "wikiDataId": null
  },
  {
    "id": 150418,
    "name": "Asadieh",
    "state_id": 3930,
    "state_code": "29",
    "state_name": "South Khorasan",
    "country_id": 103,
    "country_code": "IR",
    "country_name": "Iran",
    "latitude": 32.9138907,
    "longitude": 60.0149845,
    "native": "اگدیه",
    "timezone": "Asia/Tehran",
    "wikiDataId": "Q2420846"
  },
  {
    "id": 150424,
    "name": "Ayask",
    "state_id": 3930,
    "state_code": "29",
    "state_name": "South Khorasan",
    "country_id": 103,
    "country_code": "IR",
    "country_name": "Iran",
    "latitude": 33.8866669,
    "longitude": 58.3690309,
    "native": "عیایه",
    "timezone": "Asia/Tehran",
    "wikiDataId": "Q83762"
  },
  {
    "id": 134828,
    "name": "Birjand",
    "state_id": 3930,
    "state_code": "29",
    "state_name": "South Khorasan",
    "country_id": 103,
    "country_code": "IR",
    "country_name": "Iran",
    "latitude": 33.00669,
    "longitude": 59.07223,
    "native": "ناگفته",
    "timezone": "Asia/Tehran",
    "wikiDataId": "Q193806"
  },
  {
    "id": 150416,
    "name": "Boshrouyeh",
    "state_id": 3930,
    "state_code": "29",
    "state_name": "South Khorasan",
    "country_id": 103,
    "country_code": "IR",
    "country_name": "Iran",
    "latitude": 33.8637127,
    "longitude": 57.4053239,
    "native": "بوشرویه",
    "timezone": "Asia/Tehran",
    "wikiDataId": "Q81444"
  },
  {
    "id": 134592,
    "name": "Boshruyeh",
    "state_id": 3930,
    "state_code": "29",
    "state_name": "South Khorasan",
    "country_id": 103,
    "country_code": "IR",
    "country_name": "Iran",
    "latitude": 34.16667,
    "longitude": 57.41667,
    "native": "چاک",
    "timezone": "Asia/Tehran",
    "wikiDataId": "Q605454"
  },
  {
    "id": 134842,
    "name": "Darmian",
    "state_id": 3930,
    "state_code": "29",
    "state_name": "South Khorasan",
    "country_id": 103,
    "country_code": "IR",
    "country_name": "Iran",
    "latitude": 32.95,
    "longitude": 60.16667,
    "native": "ادمیان",
    "timezone": "Asia/Tehran",
    "wikiDataId": "Q498106"
  },
  {
    "id": 150428,
    "name": "Deyhuk",
    "state_id": 3930,
    "state_code": "29",
    "state_name": "South Khorasan",
    "country_id": 103,
    "country_code": "IR",
    "country_name": "Iran",
    "latitude": 33.2929958,
    "longitude": 57.5043725,
    "native": "دیهوک",
    "timezone": "Asia/Tehran",
    "wikiDataId": "Q2438612"
  },
  {
    "id": 150415,
    "name": "Eresk",
    "state_id": 3930,
    "state_code": "29",
    "state_name": "South Khorasan",
    "country_id": 103,
    "country_code": "IR",
    "country_name": "Iran",
    "latitude": 33.7028487,
    "longitude": 57.3625158,
    "native": "ادم بی نظیر",
    "timezone": "Asia/Tehran",
    "wikiDataId": "Q4360398"
  },
  {
    "id": 150433,
    "name": "Esfedan",
    "state_id": 3930,
    "state_code": "29",
    "state_name": "South Khorasan",
    "country_id": 103,
    "country_code": "IR",
    "country_name": "Iran",
    "latitude": 33.6461168,
    "longitude": 59.7709894,
    "native": "ایزو",
    "timezone": "Asia/Tehran",
    "wikiDataId": "Q83876"
  },
  {
    "id": 150429,
    "name": "Eshqabad",
    "state_id": 3930,
    "state_code": "29",
    "state_name": "South Khorasan",
    "country_id": 103,
    "country_code": "IR",
    "country_name": "Iran",
    "latitude": 34.366944,
    "longitude": 56.931111,
    "native": "کاپسی",
    "timezone": "Asia/Tehran",
    "wikiDataId": "Q280533"
  },
  {
    "id": 150430,
    "name": "Eslamiyeh",
    "state_id": 3930,
    "state_code": "29",
    "state_name": "South Khorasan",
    "country_id": 103,
    "country_code": "IR",
    "country_name": "Iran",
    "latitude": 34.045556,
    "longitude": 58.220278,
    "native": "اسلامیه",
    "timezone": "Asia/Tehran",
    "wikiDataId": "Q2420882"
  },
  {
    "id": 150431,
    "name": "Ferdows",
    "state_id": 3930,
    "state_code": "29",
    "state_name": "South Khorasan",
    "country_id": 103,
    "country_code": "IR",
    "country_name": "Iran",
    "latitude": 34.0194028,
    "longitude": 58.1541107,
    "native": "درخت",
    "timezone": "Asia/Tehran",
    "wikiDataId": "Q720397"
  },
  {
    "id": 150421,
    "name": "Gazik",
    "state_id": 3930,
    "state_code": "29",
    "state_name": "South Khorasan",
    "country_id": 103,
    "country_code": "IR",
    "country_name": "Iran",
    "latitude": 32.9999182,
    "longitude": 60.2117842,
    "native": "غزیک",
    "timezone": "Asia/Tehran",
    "wikiDataId": "Q5529146"
  },
  {
    "id": 150435,
    "name": "Ghayen",
    "state_id": 3930,
    "state_code": "29",
    "state_name": "South Khorasan",
    "country_id": 103,
    "country_code": "IR",
    "country_name": "Iran",
    "latitude": 33.7248254,
    "longitude": 59.1432231,
    "native": "غول",
    "timezone": "Asia/Tehran",
    "wikiDataId": "Q720028"
  },
  {
    "id": 150420,
    "name": "Ghohestan",
    "state_id": 3930,
    "state_code": "29",
    "state_name": "South Khorasan",
    "country_id": 103,
    "country_code": "IR",
    "country_name": "Iran",
    "latitude": 33.151832,
    "longitude": 59.6968745,
    "native": "غوغا",
    "timezone": "Asia/Tehran",
    "wikiDataId": "Q266641"
  },
  {
    "id": 150422,
    "name": "Hajiabad",
    "state_id": 3930,
    "state_code": "29",
    "state_name": "South Khorasan",
    "country_id": 103,
    "country_code": "IR",
    "country_name": "Iran",
    "latitude": 33.6032707,
    "longitude": 59.9903727,
    "native": "وابسته به حاجی",
    "timezone": "Asia/Tehran",
    "wikiDataId": "Q5640124"
  },
  {
    "id": 150434,
    "name": "Khezri Dashtebayaz",
    "state_id": 3930,
    "state_code": "29",
    "state_name": "South Khorasan",
    "country_id": 103,
    "country_code": "IR",
    "country_name": "Iran",
    "latitude": 34.0211,
    "longitude": 58.8077974,
    "native": "خزری دشتبیااز",
    "timezone": "Asia/Tehran",
    "wikiDataId": null
  },
  {
    "id": 134927,
    "name": "Khusf",
    "state_id": 3930,
    "state_code": "29",
    "state_name": "South Khorasan",
    "country_id": 103,
    "country_code": "IR",
    "country_name": "Iran",
    "latitude": 32.18333,
    "longitude": 58.76667,
    "native": "خرمه",
    "timezone": "Asia/Tehran",
    "wikiDataId": "Q1264551"
  },
  {
    "id": 150417,
    "name": "Mohammad Shahr",
    "state_id": 3930,
    "state_code": "29",
    "state_name": "South Khorasan",
    "country_id": 103,
    "country_code": "IR",
    "country_name": "Iran",
    "latitude": 35.7447593,
    "longitude": 50.8722777,
    "native": "محمد شاه",
    "timezone": "Asia/Tehran",
    "wikiDataId": null
  },
  {
    "id": 150427,
    "name": "Mud",
    "state_id": 3930,
    "state_code": "29",
    "state_name": "South Khorasan",
    "country_id": 103,
    "country_code": "IR",
    "country_name": "Iran",
    "latitude": 32.7089063,
    "longitude": 59.5168012,
    "native": "گل",
    "timezone": "Asia/Tehran",
    "wikiDataId": "Q170449"
  },
  {
    "id": 134980,
    "name": "Nehbandan",
    "state_id": 3930,
    "state_code": "29",
    "state_name": "South Khorasan",
    "country_id": 103,
    "country_code": "IR",
    "country_name": "Iran",
    "latitude": 31.56667,
    "longitude": 59.81667,
    "native": "نهربانی",
    "timezone": "Asia/Tehran",
    "wikiDataId": "Q5099954"
  },
  {
    "id": 150436,
    "name": "Nimbolook",
    "state_id": 3930,
    "state_code": "29",
    "state_name": "South Khorasan",
    "country_id": 103,
    "country_code": "IR",
    "country_name": "Iran",
    "latitude": 33.9116942,
    "longitude": 58.923626,
    "native": "نیمبولک",
    "timezone": "Asia/Tehran",
    "wikiDataId": null
  },
  {
    "id": 134746,
    "name": "Qaen",
    "state_id": 3930,
    "state_code": "29",
    "state_name": "South Khorasan",
    "country_id": 103,
    "country_code": "IR",
    "country_name": "Iran",
    "latitude": 33.72654,
    "longitude": 59.18439,
    "native": "قاهد",
    "timezone": "Asia/Tehran",
    "wikiDataId": "Q720028"
  },
  {
    "id": 135030,
    "name": "Sarayan",
    "state_id": 3930,
    "state_code": "29",
    "state_name": "South Khorasan",
    "country_id": 103,
    "country_code": "IR",
    "country_name": "Iran",
    "latitude": 33.41667,
    "longitude": 58.31667,
    "native": "ساریان",
    "timezone": "Asia/Tehran",
    "wikiDataId": "Q1286233"
  },
  {
    "id": 150426,
    "name": "Sarbishe",
    "state_id": 3930,
    "state_code": "29",
    "state_name": "South Khorasan",
    "country_id": 103,
    "country_code": "IR",
    "country_name": "Iran",
    "latitude": 32.4908181,
    "longitude": 59.4876362,
    "native": "ساهربیش",
    "timezone": "Asia/Tehran",
    "wikiDataId": null
  },
  {
    "id": 135024,
    "name": "Sarbisheh",
    "state_id": 3930,
    "state_code": "29",
    "state_name": "South Khorasan",
    "country_id": 103,
    "country_code": "IR",
    "country_name": "Iran",
    "latitude": 32.4,
    "longitude": 60.08333,
    "native": "ساربی",
    "timezone": "Asia/Tehran",
    "wikiDataId": "Q5099954"
  },
  {
    "id": 150425,
    "name": "Seh Qaleh",
    "state_id": 3930,
    "state_code": "29",
    "state_name": "South Khorasan",
    "country_id": 103,
    "country_code": "IR",
    "country_name": "Iran",
    "latitude": 33.6605271,
    "longitude": 58.3983062,
    "native": "سح قله",
    "timezone": "Asia/Tehran",
    "wikiDataId": "Q3954577"
  },
  {
    "id": 150437,
    "name": "Shusf",
    "state_id": 3930,
    "state_code": "29",
    "state_name": "South Khorasan",
    "country_id": 103,
    "country_code": "IR",
    "country_name": "Iran",
    "latitude": 31.8055726,
    "longitude": 59.9981617,
    "native": "شستشو",
    "timezone": "Asia/Tehran",
    "wikiDataId": "Q4360356"
  },
  {
    "id": 135124,
    "name": "Tabas",
    "state_id": 3930,
    "state_code": "29",
    "state_name": "South Khorasan",
    "country_id": 103,
    "country_code": "IR",
    "country_name": "Iran",
    "latitude": 32.80304,
    "longitude": 60.22146,
    "native": "متلاطم",
    "timezone": "Asia/Tehran",
    "wikiDataId": "Q767820"
  },
  {
    "id": 150419,
    "name": "Tabas Masina",
    "state_id": 3930,
    "state_code": "29",
    "state_name": "South Khorasan",
    "country_id": 103,
    "country_code": "IR",
    "country_name": "Iran",
    "latitude": 32.8077099,
    "longitude": 60.2150344,
    "native": "دستگاه را بزنید",
    "timezone": "Asia/Tehran",
    "wikiDataId": "Q1764089"
  },
  {
    "id": 135077,
    "name": "Zirkuh",
    "state_id": 3930,
    "state_code": "29",
    "state_name": "South Khorasan",
    "country_id": 103,
    "country_code": "IR",
    "country_name": "Iran",
    "latitude": 33.58333,
    "longitude": 60.3,
    "native": "زیرکوه",
    "timezone": "Asia/Tehran",
    "wikiDataId": "Q1286247"
  },
  {
    "id": 150423,
    "name": "Zohaan",
    "state_id": 3930,
    "state_code": "29",
    "state_name": "South Khorasan",
    "country_id": 103,
    "country_code": "IR",
    "country_name": "Iran",
    "latitude": 33.4233197,
    "longitude": 59.8072744,
    "native": "زان",
    "timezone": "Asia/Tehran",
    "wikiDataId": null
  }
]