[
  {
    "id": 150753,
    "name": "Aminshahr",
    "state_id": 3943,
    "state_code": "08",
    "state_name": "Kerman",
    "country_id": 103,
    "country_code": "IR",
    "country_name": "Iran",
    "latitude": 30.8422136,
    "longitude": 55.3320513,
    "native": "امشهر",
    "timezone": "Asia/Tehran",
    "wikiDataId": "Q4364304"
  },
  {
    "id": 134791,
    "name": "Anar",
    "state_id": 3943,
    "state_code": "08",
    "state_name": "Kerman",
    "country_id": 103,
    "country_code": "IR",
    "country_name": "Iran",
    "latitude": 30.85,
    "longitude": 55.35,
    "native": "سوار شدن",
    "timezone": "Asia/Tehran",
    "wikiDataId": "Q498106"
  },
  {
    "id": 135102,
    "name": "Anbarabad",
    "state_id": 3943,
    "state_code": "08",
    "state_name": "Kerman",
    "country_id": 103,
    "country_code": "IR",
    "country_name": "Iran",
    "latitude": 28.43333,
    "longitude": 58.16667,
    "native": "خجالت آور",
    "timezone": "Asia/Tehran",
    "wikiDataId": "Q1286502"
  },
  {
    "id": 150790,
    "name": "Andouhjerd",
    "state_id": 3943,
    "state_code": "08",
    "state_name": "Kerman",
    "country_id": 103,
    "country_code": "IR",
    "country_name": "Iran",
    "latitude": 30.2328544,
    "longitude": 57.7355145,
    "native": "ندوجر",
    "timezone": "Asia/Tehran",
    "wikiDataId": null
  },
  {
    "id": 134598,
    "name": "Baft",
    "state_id": 3943,
    "state_code": "08",
    "state_name": "Kerman",
    "country_id": 103,
    "country_code": "IR",
    "country_name": "Iran",
    "latitude": 29.2331,
    "longitude": 56.6022,
    "native": "شکستن",
    "timezone": "Asia/Tehran",
    "wikiDataId": "Q1799624"
  },
  {
    "id": 150791,
    "name": "Bagheyn",
    "state_id": 3943,
    "state_code": "08",
    "state_name": "Kerman",
    "country_id": 103,
    "country_code": "IR",
    "country_name": "Iran",
    "latitude": 30.1854766,
    "longitude": 56.8039941,
    "native": "تکریم",
    "timezone": "Asia/Tehran",
    "wikiDataId": "Q4841765"
  },
  {
    "id": 150765,
    "name": "Bahreman",
    "state_id": 3943,
    "state_code": "08",
    "state_name": "Kerman",
    "country_id": 103,
    "country_code": "IR",
    "country_name": "Iran",
    "latitude": 30.9003641,
    "longitude": 55.7168626,
    "native": "زاغ",
    "timezone": "Asia/Tehran",
    "wikiDataId": "Q2420788"
  },
  {
    "id": 150775,
    "name": "Balvard",
    "state_id": 3943,
    "state_code": "08",
    "state_name": "Kerman",
    "country_id": 103,
    "country_code": "IR",
    "country_name": "Iran",
    "latitude": 29.4231882,
    "longitude": 56.0364532,
    "native": "بالن",
    "timezone": "Asia/Tehran",
    "wikiDataId": "Q5846529"
  },
  {
    "id": 134575,
    "name": "Bam",
    "state_id": 3943,
    "state_code": "08",
    "state_name": "Kerman",
    "country_id": 103,
    "country_code": "IR",
    "country_name": "Iran",
    "latitude": 29.06667,
    "longitude": 58.23333,
    "native": "بامداد",
    "timezone": "Asia/Tehran",
    "wikiDataId": "Q604576"
  },
  {
    "id": 150759,
    "name": "Baravat",
    "state_id": 3943,
    "state_code": "08",
    "state_name": "Kerman",
    "country_id": 103,
    "country_code": "IR",
    "country_name": "Iran",
    "latitude": 29.0615618,
    "longitude": 58.3850377,
    "native": "باروات",
    "timezone": "Asia/Tehran",
    "wikiDataId": "Q2420909"
  },
  {
    "id": 134582,
    "name": "Bardsir",
    "state_id": 3943,
    "state_code": "08",
    "state_name": "Kerman",
    "country_id": 103,
    "country_code": "IR",
    "country_name": "Iran",
    "latitude": 29.92266,
    "longitude": 56.57433,
    "native": "بارداری",
    "timezone": "Asia/Tehran",
    "wikiDataId": "Q2159871"
  },
  {
    "id": 150754,
    "name": "Bezanjan",
    "state_id": 3943,
    "state_code": "08",
    "state_name": "Kerman",
    "country_id": 103,
    "country_code": "IR",
    "country_name": "Iran",
    "latitude": 29.2476133,
    "longitude": 56.6889811,
    "native": "بزانجان",
    "timezone": "Asia/Tehran",
    "wikiDataId": null
  },
  {
    "id": 150760,
    "name": "Boluk",
    "state_id": 3943,
    "state_code": "08",
    "state_name": "Kerman",
    "country_id": 103,
    "country_code": "IR",
    "country_name": "Iran",
    "latitude": 28.2306041,
    "longitude": 57.5046515,
    "native": "بولک",
    "timezone": "Asia/Tehran",
    "wikiDataId": "Q5801573"
  },
  {
    "id": 150793,
    "name": "Chatroud",
    "state_id": 3943,
    "state_code": "08",
    "state_name": "Kerman",
    "country_id": 103,
    "country_code": "IR",
    "country_name": "Iran",
    "latitude": 30.6021246,
    "longitude": 56.9042873,
    "native": "با صدای بلند",
    "timezone": "Asia/Tehran",
    "wikiDataId": "Q2420303"
  },
  {
    "id": 150762,
    "name": "Darb-e Behesht",
    "state_id": 3943,
    "state_code": "08",
    "state_name": "Kerman",
    "country_id": 103,
    "country_code": "IR",
    "country_name": "Iran",
    "latitude": 29.2346193,
    "longitude": 57.3300076,
    "native": "دره",
    "timezone": "Asia/Tehran",
    "wikiDataId": "Q2416622"
  },
  {
    "id": 150755,
    "name": "Dashtkar",
    "state_id": 3943,
    "state_code": "08",
    "state_name": "Kerman",
    "country_id": 103,
    "country_code": "IR",
    "country_name": "Iran",
    "latitude": 29.9069001,
    "longitude": 56.6578542,
    "native": "دشتکار",
    "timezone": "Asia/Tehran",
    "wikiDataId": "Q5847120"
  },
  {
    "id": 150784,
    "name": "Dehaj",
    "state_id": 3943,
    "state_code": "08",
    "state_name": "Kerman",
    "country_id": 103,
    "country_code": "IR",
    "country_name": "Iran",
    "latitude": 30.6937236,
    "longitude": 54.8638772,
    "native": "دیهج",
    "timezone": "Asia/Tehran",
    "wikiDataId": "Q2420922"
  },
  {
    "id": 150785,
    "name": "Dow Sari",
    "state_id": 3943,
    "state_code": "08",
    "state_name": "Kerman",
    "country_id": 103,
    "country_code": "IR",
    "country_name": "Iran",
    "latitude": 28.425,
    "longitude": 57.9425,
    "native": "ساری",
    "timezone": "Asia/Tehran",
    "wikiDataId": "Q5849008"
  },
  {
    "id": 150789,
    "name": "Ekhteyarabad",
    "state_id": 3943,
    "state_code": "08",
    "state_name": "Kerman",
    "country_id": 103,
    "country_code": "IR",
    "country_name": "Iran",
    "latitude": 30.3272101,
    "longitude": 56.9030855,
    "native": "اکهتیارباد",
    "timezone": "Asia/Tehran",
    "wikiDataId": "Q4361932"
  },
  {
    "id": 150787,
    "name": "Fahraj",
    "state_id": 3943,
    "state_code": "08",
    "state_name": "Kerman",
    "country_id": 103,
    "country_code": "IR",
    "country_name": "Iran",
    "latitude": 28.9458556,
    "longitude": 58.8759898,
    "native": "فهراج",
    "timezone": "Asia/Tehran",
    "wikiDataId": "Q2420935"
  },
  {
    "id": 134872,
    "name": "Faryab",
    "state_id": 3943,
    "state_code": "08",
    "state_name": "Kerman",
    "country_id": 103,
    "country_code": "IR",
    "country_name": "Iran",
    "latitude": 28.2,
    "longitude": 57.21667,
    "native": "چاره",
    "timezone": "Asia/Tehran",
    "wikiDataId": "Q721034"
  },
  {
    "id": 150788,
    "name": "Ghalehganj",
    "state_id": 3943,
    "state_code": "08",
    "state_name": "Kerman",
    "country_id": 103,
    "country_code": "IR",
    "country_name": "Iran",
    "latitude": 27.5244069,
    "longitude": 57.8530168,
    "native": "غاله",
    "timezone": "Asia/Tehran",
    "wikiDataId": null
  },
  {
    "id": 150798,
    "name": "Golbāf",
    "state_id": 3943,
    "state_code": "08",
    "state_name": "Kerman",
    "country_id": 103,
    "country_code": "IR",
    "country_name": "Iran",
    "latitude": 29.8849282,
    "longitude": 57.714486,
    "native": "گلف",
    "timezone": "Asia/Tehran",
    "wikiDataId": null
  },
  {
    "id": 150756,
    "name": "Golzar",
    "state_id": 3943,
    "state_code": "08",
    "state_name": "Kerman",
    "country_id": 103,
    "country_code": "IR",
    "country_name": "Iran",
    "latitude": 29.7054412,
    "longitude": 57.0246003,
    "native": "گولزار",
    "timezone": "Asia/Tehran",
    "wikiDataId": "Q5581036"
  },
  {
    "id": 150770,
    "name": "Gonbaki",
    "state_id": 3943,
    "state_code": "08",
    "state_name": "Kerman",
    "country_id": 103,
    "country_code": "IR",
    "country_name": "Iran",
    "latitude": 28.7147508,
    "longitude": 58.8432883,
    "native": "گونباکی",
    "timezone": "Asia/Tehran",
    "wikiDataId": "Q16461484"
  },
  {
    "id": 150763,
    "name": "Hanza",
    "state_id": 3943,
    "state_code": "08",
    "state_name": "Kerman",
    "country_id": 103,
    "country_code": "IR",
    "country_name": "Iran",
    "latitude": 29.2984561,
    "longitude": 57.1797703,
    "native": "هانزا",
    "timezone": "Asia/Tehran",
    "wikiDataId": "Q16462218"
  },
  {
    "id": 150764,
    "name": "Hojedk",
    "state_id": 3943,
    "state_code": "08",
    "state_name": "Kerman",
    "country_id": 103,
    "country_code": "IR",
    "country_name": "Iran",
    "latitude": 30.7580818,
    "longitude": 56.9874786,
    "native": "هجدک",
    "timezone": "Asia/Tehran",
    "wikiDataId": "Q4358643"
  },
  {
    "id": 150780,
    "name": "Homashahr",
    "state_id": 3943,
    "state_code": "08",
    "state_name": "Kerman",
    "country_id": 103,
    "country_code": "IR",
    "country_name": "Iran",
    "latitude": 29.6444971,
    "longitude": 55.8026505,
    "native": "هومشهر",
    "timezone": "Asia/Tehran",
    "wikiDataId": null
  },
  {
    "id": 150761,
    "name": "Jebalbarez",
    "state_id": 3943,
    "state_code": "08",
    "state_name": "Kerman",
    "country_id": 103,
    "country_code": "IR",
    "country_name": "Iran",
    "latitude": 28.9070367,
    "longitude": 57.882328,
    "native": "جبالبااز",
    "timezone": "Asia/Tehran",
    "wikiDataId": "Q4359081"
  },
  {
    "id": 134901,
    "name": "Jiroft",
    "state_id": 3943,
    "state_code": "08",
    "state_name": "Kerman",
    "country_id": 103,
    "country_code": "IR",
    "country_name": "Iran",
    "latitude": 28.83333,
    "longitude": 57.58333,
    "native": "جبلی",
    "timezone": "Asia/Tehran",
    "wikiDataId": "Q721034"
  },
  {
    "id": 150792,
    "name": "Joupar",
    "state_id": 3943,
    "state_code": "08",
    "state_name": "Kerman",
    "country_id": 103,
    "country_code": "IR",
    "country_name": "Iran",
    "latitude": 30.0560544,
    "longitude": 57.0980928,
    "native": "خندق",
    "timezone": "Asia/Tehran",
    "wikiDataId": null
  },
  {
    "id": 150781,
    "name": "Jowzam",
    "state_id": 3943,
    "state_code": "08",
    "state_name": "Kerman",
    "country_id": 103,
    "country_code": "IR",
    "country_name": "Iran",
    "latitude": 30.5130258,
    "longitude": 55.0225997,
    "native": "جنجال",
    "timezone": "Asia/Tehran",
    "wikiDataId": "Q2420800"
  },
  {
    "id": 150801,
    "name": "Kahnooj",
    "state_id": 3943,
    "state_code": "08",
    "state_name": "Kerman",
    "country_id": 103,
    "country_code": "IR",
    "country_name": "Iran",
    "latitude": 27.9793488,
    "longitude": 57.6659248,
    "native": "کله",
    "timezone": "Asia/Tehran",
    "wikiDataId": "Q2159855"
  },
  {
    "id": 134903,
    "name": "Kahnuj",
    "state_id": 3943,
    "state_code": "08",
    "state_name": "Kerman",
    "country_id": 103,
    "country_code": "IR",
    "country_name": "Iran",
    "latitude": 27.9,
    "longitude": 57.61667,
    "native": "باجوه",
    "timezone": "Asia/Tehran",
    "wikiDataId": "Q721034"
  },
  {
    "id": 150797,
    "name": "Kazem Abad",
    "state_id": 3943,
    "state_code": "08",
    "state_name": "Kerman",
    "country_id": 103,
    "country_code": "IR",
    "country_name": "Iran",
    "latitude": 30.5669163,
    "longitude": 56.8368673,
    "native": "کظم آباد",
    "timezone": "Asia/Tehran",
    "wikiDataId": null
  },
  {
    "id": 134667,
    "name": "Kerman",
    "state_id": 3943,
    "state_code": "08",
    "state_name": "Kerman",
    "country_id": 103,
    "country_code": "IR",
    "country_name": "Iran",
    "latitude": 30.28321,
    "longitude": 57.07879,
    "native": "کرمن",
    "timezone": "Asia/Tehran",
    "wikiDataId": "Q171714"
  },
  {
    "id": 150777,
    "name": "Khajoo Shahr",
    "state_id": 3943,
    "state_code": "08",
    "state_name": "Kerman",
    "country_id": 103,
    "country_code": "IR",
    "country_name": "Iran",
    "latitude": 29.2724737,
    "longitude": 55.8266402,
    "native": "خاله",
    "timezone": "Asia/Tehran",
    "wikiDataId": null
  },
  {
    "id": 150772,
    "name": "Khanook",
    "state_id": 3943,
    "state_code": "08",
    "state_name": "Kerman",
    "country_id": 103,
    "country_code": "IR",
    "country_name": "Iran",
    "latitude": 30.7155863,
    "longitude": 56.7533324,
    "native": "خندق",
    "timezone": "Asia/Tehran",
    "wikiDataId": null
  },
  {
    "id": 150782,
    "name": "KhatonAbad",
    "state_id": 3943,
    "state_code": "08",
    "state_name": "Kerman",
    "country_id": 103,
    "country_code": "IR",
    "country_name": "Iran",
    "latitude": 30.0094751,
    "longitude": 55.4127002,
    "native": "خاتوناباد",
    "timezone": "Asia/Tehran",
    "wikiDataId": null
  },
  {
    "id": 150783,
    "name": "Khursand",
    "state_id": 3943,
    "state_code": "08",
    "state_name": "Kerman",
    "country_id": 103,
    "country_code": "IR",
    "country_name": "Iran",
    "latitude": 30.1548491,
    "longitude": 55.0778103,
    "native": "کورن",
    "timezone": "Asia/Tehran",
    "wikiDataId": "Q2420833"
  },
  {
    "id": 134781,
    "name": "Kian Shahr",
    "state_id": 3943,
    "state_code": "08",
    "state_name": "Kerman",
    "country_id": 103,
    "country_code": "IR",
    "country_name": "Iran",
    "latitude": 31.13444,
    "longitude": 56.39806,
    "native": "کیان شاه",
    "timezone": "Asia/Tehran",
    "wikiDataId": "Q498106"
  },
  {
    "id": 150767,
    "name": "Koshkuiyeh",
    "state_id": 3943,
    "state_code": "08",
    "state_name": "Kerman",
    "country_id": 103,
    "country_code": "IR",
    "country_name": "Iran",
    "latitude": 30.5290457,
    "longitude": 55.6322737,
    "native": "کوشکوی",
    "timezone": "Asia/Tehran",
    "wikiDataId": "Q2420754"
  },
  {
    "id": 134686,
    "name": "Kuh Sefid",
    "state_id": 3943,
    "state_code": "08",
    "state_name": "Kerman",
    "country_id": 103,
    "country_code": "IR",
    "country_name": "Iran",
    "latitude": 29.2762,
    "longitude": 56.8014,
    "native": "کوه سفید",
    "timezone": "Asia/Tehran",
    "wikiDataId": "Q721060"
  },
  {
    "id": 134938,
    "name": "Kuhbanan",
    "state_id": 3943,
    "state_code": "08",
    "state_name": "Kerman",
    "country_id": 103,
    "country_code": "IR",
    "country_name": "Iran",
    "latitude": 31.38333,
    "longitude": 56.33333,
    "native": "شما",
    "timezone": "Asia/Tehran",
    "wikiDataId": "Q1264551"
  },
  {
    "id": 150757,
    "name": "Laleh zaar",
    "state_id": 3943,
    "state_code": "08",
    "state_name": "Kerman",
    "country_id": 103,
    "country_code": "IR",
    "country_name": "Iran",
    "latitude": 29.5205162,
    "longitude": 56.8075345,
    "native": "لاله زار",
    "timezone": "Asia/Tehran",
    "wikiDataId": null
  },
  {
    "id": 150799,
    "name": "Mahan",
    "state_id": 3943,
    "state_code": "08",
    "state_name": "Kerman",
    "country_id": 103,
    "country_code": "IR",
    "country_name": "Iran",
    "latitude": 30.0641442,
    "longitude": 57.2560209,
    "native": "ماهان",
    "timezone": "Asia/Tehran",
    "wikiDataId": "Q421372"
  },
  {
    "id": 150802,
    "name": "Manoojan",
    "state_id": 3943,
    "state_code": "08",
    "state_name": "Kerman",
    "country_id": 103,
    "country_code": "IR",
    "country_name": "Iran",
    "latitude": 27.3682492,
    "longitude": 57.2028964,
    "native": "مانوژان",
    "timezone": "Asia/Tehran",
    "wikiDataId": "Q385569"
  },
  {
    "id": 134953,
    "name": "Manujan",
    "state_id": 3943,
    "state_code": "08",
    "state_name": "Kerman",
    "country_id": 103,
    "country_code": "IR",
    "country_name": "Iran",
    "latitude": 27.35,
    "longitude": 57.61667,
    "native": "مانوژن",
    "timezone": "Asia/Tehran",
    "wikiDataId": "Q1264551"
  },
  {
    "id": 150786,
    "name": "Mardehak",
    "state_id": 3943,
    "state_code": "08",
    "state_name": "Kerman",
    "country_id": 103,
    "country_code": "IR",
    "country_name": "Iran",
    "latitude": 28.3536391,
    "longitude": 58.149991,
    "native": "جنجال",
    "timezone": "Asia/Tehran",
    "wikiDataId": "Q4358747"
  },
  {
    "id": 150771,
    "name": "Mohammadabad",
    "state_id": 3943,
    "state_code": "08",
    "state_name": "Kerman",
    "country_id": 103,
    "country_code": "IR",
    "country_name": "Iran",
    "latitude": 28.6283959,
    "longitude": 59.1188693,
    "native": "محمدآباد",
    "timezone": "Asia/Tehran",
    "wikiDataId": "Q428697"
  },
  {
    "id": 150800,
    "name": "MohyAbad",
    "state_id": 3943,
    "state_code": "08",
    "state_name": "Kerman",
    "country_id": 103,
    "country_code": "IR",
    "country_name": "Iran",
    "latitude": 30.0840413,
    "longitude": 57.1525741,
    "native": "موهاباد",
    "timezone": "Asia/Tehran",
    "wikiDataId": null
  },
  {
    "id": 150779,
    "name": "Najaf Shahr",
    "state_id": 3943,
    "state_code": "08",
    "state_name": "Kerman",
    "country_id": 103,
    "country_code": "IR",
    "country_name": "Iran",
    "latitude": 29.397391,
    "longitude": 55.7018206,
    "native": "نجف شاه",
    "timezone": "Asia/Tehran",
    "wikiDataId": "Q2420896"
  },
  {
    "id": 134977,
    "name": "Narmashir",
    "state_id": 3943,
    "state_code": "08",
    "state_name": "Kerman",
    "country_id": 103,
    "country_code": "IR",
    "country_name": "Iran",
    "latitude": 29.26667,
    "longitude": 58.73333,
    "native": "نارماشیر",
    "timezone": "Asia/Tehran",
    "wikiDataId": "Q5099954"
  },
  {
    "id": 150758,
    "name": "Negar",
    "state_id": 3943,
    "state_code": "08",
    "state_name": "Kerman",
    "country_id": 103,
    "country_code": "IR",
    "country_name": "Iran",
    "latitude": 29.8570212,
    "longitude": 56.7939841,
    "native": "انکار کردن",
    "timezone": "Asia/Tehran",
    "wikiDataId": "Q2620754"
  },
  {
    "id": 150804,
    "name": "Nezamshahr",
    "state_id": 3943,
    "state_code": "08",
    "state_name": "Kerman",
    "country_id": 103,
    "country_code": "IR",
    "country_name": "Iran",
    "latitude": 28.916111,
    "longitude": 58.550278,
    "native": "نزامشهر",
    "timezone": "Asia/Tehran",
    "wikiDataId": "Q497039"
  },
  {
    "id": 150803,
    "name": "Nodej",
    "state_id": 3943,
    "state_code": "08",
    "state_name": "Kerman",
    "country_id": 103,
    "country_code": "IR",
    "country_name": "Iran",
    "latitude": 27.5319403,
    "longitude": 57.4442051,
    "native": "گره",
    "timezone": "Asia/Tehran",
    "wikiDataId": null
  },
  {
    "id": 150752,
    "name": "Orzueeyeh",
    "state_id": 3943,
    "state_code": "08",
    "state_name": "Kerman",
    "country_id": 103,
    "country_code": "IR",
    "country_name": "Iran",
    "latitude": 28.4583908,
    "longitude": 56.3532177,
    "native": "ارزوئیه",
    "timezone": "Asia/Tehran",
    "wikiDataId": null
  },
  {
    "id": 134989,
    "name": "Orzuiyeh",
    "state_id": 3943,
    "state_code": "08",
    "state_name": "Kerman",
    "country_id": 103,
    "country_code": "IR",
    "country_name": "Iran",
    "latitude": 28.46667,
    "longitude": 56.53333,
    "native": "ارزوئیه",
    "timezone": "Asia/Tehran",
    "wikiDataId": "Q5099954"
  },
  {
    "id": 150776,
    "name": "Pariz",
    "state_id": 3943,
    "state_code": "08",
    "state_name": "Kerman",
    "country_id": 103,
    "country_code": "IR",
    "country_name": "Iran",
    "latitude": 29.8788094,
    "longitude": 55.7269373,
    "native": "پاریس",
    "timezone": "Asia/Tehran",
    "wikiDataId": "Q2420257"
  },
  {
    "id": 135000,
    "name": "Qaleh Ganj",
    "state_id": 3943,
    "state_code": "08",
    "state_name": "Kerman",
    "country_id": 103,
    "country_code": "IR",
    "country_name": "Iran",
    "latitude": 27.2,
    "longitude": 58.33333,
    "native": "قله گانک",
    "timezone": "Asia/Tehran",
    "wikiDataId": "Q5099954"
  },
  {
    "id": 135012,
    "name": "Rabor",
    "state_id": 3943,
    "state_code": "08",
    "state_name": "Kerman",
    "country_id": 103,
    "country_code": "IR",
    "country_name": "Iran",
    "latitude": 29.25,
    "longitude": 56.98333,
    "native": "خرگوش",
    "timezone": "Asia/Tehran",
    "wikiDataId": "Q5099954"
  },
  {
    "id": 134748,
    "name": "Rafsanjan",
    "state_id": 3943,
    "state_code": "08",
    "state_name": "Kerman",
    "country_id": 103,
    "country_code": "IR",
    "country_name": "Iran",
    "latitude": 30.4067,
    "longitude": 55.9939,
    "native": "رافسان",
    "timezone": "Asia/Tehran",
    "wikiDataId": "Q575804"
  },
  {
    "id": 134759,
    "name": "Ravar",
    "state_id": 3943,
    "state_code": "08",
    "state_name": "Kerman",
    "country_id": 103,
    "country_code": "IR",
    "country_name": "Iran",
    "latitude": 31.26562,
    "longitude": 56.80545,
    "native": "گودال",
    "timezone": "Asia/Tehran",
    "wikiDataId": "Q2628801"
  },
  {
    "id": 150794,
    "name": "Rayen",
    "state_id": 3943,
    "state_code": "08",
    "state_name": "Kerman",
    "country_id": 103,
    "country_code": "IR",
    "country_name": "Iran",
    "latitude": 29.5926739,
    "longitude": 57.4271677,
    "native": "پرتو",
    "timezone": "Asia/Tehran",
    "wikiDataId": "Q498130"
  },
  {
    "id": 150773,
    "name": "Reyhan",
    "state_id": 3943,
    "state_code": "08",
    "state_name": "Kerman",
    "country_id": 103,
    "country_code": "IR",
    "country_name": "Iran",
    "latitude": 30.7348538,
    "longitude": 56.6873926,
    "native": "ریحان",
    "timezone": "Asia/Tehran",
    "wikiDataId": "Q4392743"
  },
  {
    "id": 134760,
    "name": "Rigan",
    "state_id": 3943,
    "state_code": "08",
    "state_name": "Kerman",
    "country_id": 103,
    "country_code": "IR",
    "country_name": "Iran",
    "latitude": 28.43333,
    "longitude": 59.15,
    "native": "سجاف",
    "timezone": "Asia/Tehran",
    "wikiDataId": "Q2628801"
  },
  {
    "id": 135018,
    "name": "Rudbar",
    "state_id": 3943,
    "state_code": "08",
    "state_name": "Kerman",
    "country_id": 103,
    "country_code": "IR",
    "country_name": "Iran",
    "latitude": 27.9,
    "longitude": 58.46667,
    "native": "ثابت",
    "timezone": "Asia/Tehran",
    "wikiDataId": "Q2420234"
  },
  {
    "id": 150766,
    "name": "Safaiyeh",
    "state_id": 3943,
    "state_code": "08",
    "state_name": "Kerman",
    "country_id": 103,
    "country_code": "IR",
    "country_name": "Iran",
    "latitude": 30.8280813,
    "longitude": 55.8030148,
    "native": "صفحیه",
    "timezone": "Asia/Tehran",
    "wikiDataId": "Q81020"
  },
  {
    "id": 150796,
    "name": "Shahdad",
    "state_id": 3943,
    "state_code": "08",
    "state_name": "Kerman",
    "country_id": 103,
    "country_code": "IR",
    "country_name": "Iran",
    "latitude": 30.4219557,
    "longitude": 57.690625,
    "native": "شهد",
    "timezone": "Asia/Tehran",
    "wikiDataId": "Q498118"
  },
  {
    "id": 150768,
    "name": "Shahrak Mes Sarcheshmeh",
    "state_id": 3943,
    "state_code": "08",
    "state_name": "Kerman",
    "country_id": 103,
    "country_code": "IR",
    "country_name": "Iran",
    "latitude": 30.0002468,
    "longitude": 55.7783173,
    "native": "شاهراک مس سرشیسم",
    "timezone": "Asia/Tehran",
    "wikiDataId": null
  },
  {
    "id": 134776,
    "name": "Shahrbabak",
    "state_id": 3943,
    "state_code": "08",
    "state_name": "Kerman",
    "country_id": 103,
    "country_code": "IR",
    "country_name": "Iran",
    "latitude": 30.1165,
    "longitude": 55.1186,
    "native": "شاهربابک",
    "timezone": "Asia/Tehran",
    "wikiDataId": "Q2159862"
  },
  {
    "id": 135116,
    "name": "Sirjan",
    "state_id": 3943,
    "state_code": "08",
    "state_name": "Kerman",
    "country_id": 103,
    "country_code": "IR",
    "country_name": "Iran",
    "latitude": 29.45137,
    "longitude": 55.6809,
    "native": "سوری",
    "timezone": "Asia/Tehran",
    "wikiDataId": "Q605224"
  },
  {
    "id": 150774,
    "name": "Yazdan Shahr",
    "state_id": 3943,
    "state_code": "08",
    "state_name": "Kerman",
    "country_id": 103,
    "country_code": "IR",
    "country_name": "Iran",
    "latitude": 30.8683324,
    "longitude": 56.3334268,
    "native": "شهر",
    "timezone": "Asia/Tehran",
    "wikiDataId": "Q2420862"
  },
  {
    "id": 150795,
    "name": "Zangiabad",
    "state_id": 3943,
    "state_code": "08",
    "state_name": "Kerman",
    "country_id": 103,
    "country_code": "IR",
    "country_name": "Iran",
    "latitude": 30.4046722,
    "longitude": 56.8977855,
    "native": "زنگباد",
    "timezone": "Asia/Tehran",
    "wikiDataId": "Q498142"
  },
  {
    "id": 135143,
    "name": "Zarand",
    "state_id": 3943,
    "state_code": "08",
    "state_name": "Kerman",
    "country_id": 103,
    "country_code": "IR",
    "country_name": "Iran",
    "latitude": 30.81271,
    "longitude": 56.56399,
    "native": "زارند",
    "timezone": "Asia/Tehran",
    "wikiDataId": "Q147736"
  },
  {
    "id": 150769,
    "name": "Zeh-e Kalut",
    "state_id": 3943,
    "state_code": "08",
    "state_name": "Kerman",
    "country_id": 103,
    "country_code": "IR",
    "country_name": "Iran",
    "latitude": 27.7925,
    "longitude": 58.586944,
    "native": "زه کلوت",
    "timezone": "Asia/Tehran",
    "wikiDataId": "Q5820831"
  },
  {
    "id": 150778,
    "name": "Zeydabad",
    "state_id": 3943,
    "state_code": "08",
    "state_name": "Kerman",
    "country_id": 103,
    "country_code": "IR",
    "country_name": "Iran",
    "latitude": 29.6009233,
    "longitude": 55.5268334,
    "native": "زیدآباد",
    "timezone": "Asia/Tehran",
    "wikiDataId": "Q2420214"
  }
]