[
  {
    "id": 150811,
    "name": "azeh Abad",
    "state_id": 3919,
    "state_code": "05",
    "state_name": "Kermanshah",
    "country_id": 103,
    "country_code": "IR",
    "country_name": "Iran",
    "latitude": 34.4969898,
    "longitude": 47.040174,
    "native": "آزه‌آباد",
    "timezone": "Asia/Tehran",
    "wikiDataId": null
  },
  {
    "id": 150806,
    "name": "Banevreh",
    "state_id": 3919,
    "state_code": "05",
    "state_name": "Kermanshah",
    "country_id": 103,
    "country_code": "IR",
    "country_name": "Iran",
    "latitude": 34.9691788,
    "longitude": 46.3502883,
    "native": "بانوره",
    "timezone": "Asia/Tehran",
    "wikiDataId": "Q5790729"
  },
  {
    "id": 150807,
    "name": "Bayangan",
    "state_id": 3919,
    "state_code": "05",
    "state_name": "Kermanshah",
    "country_id": 103,
    "country_code": "IR",
    "country_name": "Iran",
    "latitude": 34.9808804,
    "longitude": 46.2678587,
    "native": "باینگان",
    "timezone": "Asia/Tehran",
    "wikiDataId": "Q4357667"
  },
  {
    "id": 150824,
    "name": "Bisotun",
    "state_id": 3919,
    "state_code": "05",
    "state_name": "Kermanshah",
    "country_id": 103,
    "country_code": "IR",
    "country_name": "Iran",
    "latitude": 34.3970564,
    "longitude": 47.4375915,
    "native": "بیستون",
    "timezone": "Asia/Tehran",
    "wikiDataId": "Q740141"
  },
  {
    "id": 134851,
    "name": "Dalahu",
    "state_id": 3919,
    "state_code": "05",
    "state_name": "Kermanshah",
    "country_id": 103,
    "country_code": "IR",
    "country_name": "Iran",
    "latitude": 34.41667,
    "longitude": 46.25,
    "native": "دالاهو",
    "timezone": "Asia/Tehran",
    "wikiDataId": "Q498106"
  },
  {
    "id": 134860,
    "name": "Eslamabad-e-Gharb",
    "state_id": 3919,
    "state_code": "05",
    "state_name": "Kermanshah",
    "country_id": 103,
    "country_code": "IR",
    "country_name": "Iran",
    "latitude": 34.05,
    "longitude": 46.66667,
    "native": "اسلام‌آباد غرب",
    "timezone": "Asia/Tehran",
    "wikiDataId": "Q498106"
  },
  {
    "id": 150810,
    "name": "Ezgeleh",
    "state_id": 3919,
    "state_code": "05",
    "state_name": "Kermanshah",
    "country_id": 103,
    "country_code": "IR",
    "country_name": "Iran",
    "latitude": 34.833144,
    "longitude": 45.8325363,
    "native": "ازگله",
    "timezone": "Asia/Tehran",
    "wikiDataId": "Q4358750"
  },
  {
    "id": 150814,
    "name": "Gahvareh",
    "state_id": 3919,
    "state_code": "05",
    "state_name": "Kermanshah",
    "country_id": 103,
    "country_code": "IR",
    "country_name": "Iran",
    "latitude": 34.3441622,
    "longitude": 46.4110136,
    "native": "گهواره",
    "timezone": "Asia/Tehran",
    "wikiDataId": "Q888801"
  },
  {
    "id": 134890,
    "name": "Gilan Gharb",
    "state_id": 3919,
    "state_code": "05",
    "state_name": "Kermanshah",
    "country_id": 103,
    "country_code": "IR",
    "country_name": "Iran",
    "latitude": 34.13333,
    "longitude": 46.0,
    "native": "گیلان‌غرب",
    "timezone": "Asia/Tehran",
    "wikiDataId": "Q721034"
  },
  {
    "id": 150822,
    "name": "Gowdin",
    "state_id": 3919,
    "state_code": "05",
    "state_name": "Kermanshah",
    "country_id": 103,
    "country_code": "IR",
    "country_name": "Iran",
    "latitude": 34.5078825,
    "longitude": 48.0748415,
    "native": "گودین",
    "timezone": "Asia/Tehran",
    "wikiDataId": "Q5964563"
  },
  {
    "id": 150821,
    "name": "Halashi",
    "state_id": 3919,
    "state_code": "05",
    "state_name": "Kermanshah",
    "country_id": 103,
    "country_code": "IR",
    "country_name": "Iran",
    "latitude": 34.1098592,
    "longitude": 47.0871127,
    "native": "هلاشی",
    "timezone": "Asia/Tehran",
    "wikiDataId": "Q5641090"
  },
  {
    "id": 150805,
    "name": "Hamil",
    "state_id": 3919,
    "state_code": "05",
    "state_name": "Kermanshah",
    "country_id": 103,
    "country_code": "IR",
    "country_name": "Iran",
    "latitude": 33.9373247,
    "longitude": 46.7657732,
    "native": "حمیل",
    "timezone": "Asia/Tehran",
    "wikiDataId": "Q4358630"
  },
  {
    "id": 134652,
    "name": "Harsin",
    "state_id": 3919,
    "state_code": "05",
    "state_name": "Kermanshah",
    "country_id": 103,
    "country_code": "IR",
    "country_name": "Iran",
    "latitude": 34.2721,
    "longitude": 47.5861,
    "native": "هرسین",
    "timezone": "Asia/Tehran",
    "wikiDataId": "Q889116"
  },
  {
    "id": 134657,
    "name": "Javanrud",
    "state_id": 3919,
    "state_code": "05",
    "state_name": "Kermanshah",
    "country_id": 103,
    "country_code": "IR",
    "country_name": "Iran",
    "latitude": 34.79611,
    "longitude": 46.51722,
    "native": "جوانرود",
    "timezone": "Asia/Tehran",
    "wikiDataId": "Q1992741"
  },
  {
    "id": 134661,
    "name": "Kahriz",
    "state_id": 3919,
    "state_code": "05",
    "state_name": "Kermanshah",
    "country_id": 103,
    "country_code": "IR",
    "country_name": "Iran",
    "latitude": 34.3838,
    "longitude": 47.0553,
    "native": "کهریز",
    "timezone": "Asia/Tehran",
    "wikiDataId": "Q945447"
  },
  {
    "id": 134663,
    "name": "Kangavar",
    "state_id": 3919,
    "state_code": "05",
    "state_name": "Kermanshah",
    "country_id": 103,
    "country_code": "IR",
    "country_name": "Iran",
    "latitude": 34.5043,
    "longitude": 47.9653,
    "native": "کنگاور",
    "timezone": "Asia/Tehran",
    "wikiDataId": "Q720604"
  },
  {
    "id": 150813,
    "name": "Kerend-e Gharb",
    "state_id": 3919,
    "state_code": "05",
    "state_name": "Kermanshah",
    "country_id": 103,
    "country_code": "IR",
    "country_name": "Iran",
    "latitude": 34.278016,
    "longitude": 46.2267029,
    "native": "کرند غرب",
    "timezone": "Asia/Tehran",
    "wikiDataId": "Q2633975"
  },
  {
    "id": 134668,
    "name": "Kermanshah",
    "state_id": 3919,
    "state_code": "05",
    "state_name": "Kermanshah",
    "country_id": 103,
    "country_code": "IR",
    "country_name": "Iran",
    "latitude": 34.31417,
    "longitude": 47.065,
    "native": "کرمانشاه",
    "timezone": "Asia/Tehran",
    "wikiDataId": "Q180078"
  },
  {
    "id": 150820,
    "name": "Kuzaran",
    "state_id": 3919,
    "state_code": "05",
    "state_name": "Kermanshah",
    "country_id": 103,
    "country_code": "IR",
    "country_name": "Iran",
    "latitude": 34.4966536,
    "longitude": 46.5967513,
    "native": "کوزران",
    "timezone": "Asia/Tehran",
    "wikiDataId": "Q2418929"
  },
  {
    "id": 150815,
    "name": "Mansur-e Aqai",
    "state_id": 3919,
    "state_code": "05",
    "state_name": "Kermanshah",
    "country_id": 103,
    "country_code": "IR",
    "country_name": "Iran",
    "latitude": 34.936519,
    "longitude": 46.4520835,
    "native": "منصور آقایی",
    "timezone": "Asia/Tehran",
    "wikiDataId": "Q5806760"
  },
  {
    "id": 150817,
    "name": "Miyan Rahan",
    "state_id": 3919,
    "state_code": "05",
    "state_name": "Kermanshah",
    "country_id": 103,
    "country_code": "IR",
    "country_name": "Iran",
    "latitude": 34.5837575,
    "longitude": 47.4415398,
    "native": "میان‌راهان",
    "timezone": "Asia/Tehran",
    "wikiDataId": "Q4359046"
  },
  {
    "id": 150808,
    "name": "Nowdeshah",
    "state_id": 3919,
    "state_code": "05",
    "state_name": "Kermanshah",
    "country_id": 103,
    "country_code": "IR",
    "country_name": "Iran",
    "latitude": 35.1820513,
    "longitude": 46.2496412,
    "native": "نودشه",
    "timezone": "Asia/Tehran",
    "wikiDataId": "Q972102"
  },
  {
    "id": 150809,
    "name": "Nowsud",
    "state_id": 3919,
    "state_code": "05",
    "state_name": "Kermanshah",
    "country_id": 103,
    "country_code": "IR",
    "country_name": "Iran",
    "latitude": 35.161354,
    "longitude": 46.2001169,
    "native": "نوسود",
    "timezone": "Asia/Tehran",
    "wikiDataId": "Q3667163"
  },
  {
    "id": 134733,
    "name": "Paveh",
    "state_id": 3919,
    "state_code": "05",
    "state_name": "Kermanshah",
    "country_id": 103,
    "country_code": "IR",
    "country_name": "Iran",
    "latitude": 35.0434,
    "longitude": 46.3565,
    "native": "پاوه",
    "timezone": "Asia/Tehran",
    "wikiDataId": "Q720608"
  },
  {
    "id": 135002,
    "name": "Qasr-e Shirin",
    "state_id": 3919,
    "state_code": "05",
    "state_name": "Kermanshah",
    "country_id": 103,
    "country_code": "IR",
    "country_name": "Iran",
    "latitude": 34.2,
    "longitude": 45.63333,
    "native": "قصر شیرین",
    "timezone": "Asia/Tehran",
    "wikiDataId": "Q5099954"
  },
  {
    "id": 135008,
    "name": "Ravansar",
    "state_id": 3919,
    "state_code": "05",
    "state_name": "Kermanshah",
    "country_id": 103,
    "country_code": "IR",
    "country_name": "Iran",
    "latitude": 34.75,
    "longitude": 46.65,
    "native": "روانسر",
    "timezone": "Asia/Tehran",
    "wikiDataId": "Q5099954"
  },
  {
    "id": 150812,
    "name": "Rijab",
    "state_id": 3919,
    "state_code": "05",
    "state_name": "Kermanshah",
    "country_id": 103,
    "country_code": "IR",
    "country_name": "Iran",
    "latitude": 34.4803029,
    "longitude": 46.0014356,
    "native": "ریجاب",
    "timezone": "Asia/Tehran",
    "wikiDataId": "Q5878679"
  },
  {
    "id": 150819,
    "name": "Robat",
    "state_id": 3919,
    "state_code": "05",
    "state_name": "Kermanshah",
    "country_id": 103,
    "country_code": "IR",
    "country_name": "Iran",
    "latitude": 34.2654623,
    "longitude": 46.7986677,
    "native": "رباط",
    "timezone": "Asia/Tehran",
    "wikiDataId": "Q3076024"
  },
  {
    "id": 135094,
    "name": "Sahneh",
    "state_id": 3919,
    "state_code": "05",
    "state_name": "Kermanshah",
    "country_id": 103,
    "country_code": "IR",
    "country_name": "Iran",
    "latitude": 34.58333,
    "longitude": 47.51667,
    "native": "صحنه",
    "timezone": "Asia/Tehran",
    "wikiDataId": "Q1277854"
  },
  {
    "id": 135056,
    "name": "Salas-e Baba Jani",
    "state_id": 3919,
    "state_code": "05",
    "state_name": "Kermanshah",
    "country_id": 103,
    "country_code": "IR",
    "country_name": "Iran",
    "latitude": 34.81667,
    "longitude": 45.98333,
    "native": "ثلاث باباجانی",
    "timezone": "Asia/Tehran",
    "wikiDataId": "Q393364"
  },
  {
    "id": 135025,
    "name": "Sarpol Zahab",
    "state_id": 3919,
    "state_code": "05",
    "state_name": "Kermanshah",
    "country_id": 103,
    "country_code": "IR",
    "country_name": "Iran",
    "latitude": 34.5,
    "longitude": 45.85,
    "native": "سرپل ذهاب",
    "timezone": "Asia/Tehran",
    "wikiDataId": "Q765582"
  },
  {
    "id": 150816,
    "name": "Satar",
    "state_id": 3919,
    "state_code": "05",
    "state_name": "Kermanshah",
    "country_id": 103,
    "country_code": "IR",
    "country_name": "Iran",
    "latitude": 34.8115128,
    "longitude": 47.4601221,
    "native": "سطر",
    "timezone": "Asia/Tehran",
    "wikiDataId": "Q148306"
  },
  {
    "id": 135120,
    "name": "Sonqor",
    "state_id": 3919,
    "state_code": "05",
    "state_name": "Kermanshah",
    "country_id": 103,
    "country_code": "IR",
    "country_name": "Iran",
    "latitude": 34.78187,
    "longitude": 47.59945,
    "native": "سنقر",
    "timezone": "Asia/Tehran",
    "wikiDataId": "Q3964916"
  },
  {
    "id": 150818,
    "name": "Soomar",
    "state_id": 3919,
    "state_code": "05",
    "state_name": "Kermanshah",
    "country_id": 103,
    "country_code": "IR",
    "country_name": "Iran",
    "latitude": 33.8812465,
    "longitude": 45.6319069,
    "native": "سومار",
    "timezone": "Asia/Tehran",
    "wikiDataId": null
  },
  {
    "id": 150823,
    "name": "Srmast",
    "state_id": 3919,
    "state_code": "05",
    "state_name": "Kermanshah",
    "country_id": 103,
    "country_code": "IR",
    "country_name": "Iran",
    "latitude": 34.5053719,
    "longitude": 47.8398478,
    "native": "سرمست",
    "timezone": "Asia/Tehran",
    "wikiDataId": null
  }
]
