[
  {
    "id": 150164,
    "name": "Avajiq",
    "state_id": 3924,
    "state_code": "04",
    "state_name": "West Azarbaijan",
    "country_id": 103,
    "country_code": "IR",
    "country_name": "Iran",
    "latitude": 39.313889,
    "longitude": 44.164722,
    "native": "آواجیق",
    "timezone": "Asia/Tehran",
    "wikiDataId": "Q4371162"
  },
  {
    "id": 150181,
    "name": "Baruq",
    "state_id": 3924,
    "state_code": "04",
    "state_name": "West Azarbaijan",
    "country_id": 103,
    "country_code": "IR",
    "country_name": "Iran",
    "latitude": 36.9530288,
    "longitude": 46.3141322,
    "native": "باروق",
    "timezone": "Asia/Tehran",
    "wikiDataId": "Q4373564"
  },
  {
    "id": 150179,
    "name": "Bazargan",
    "state_id": 3924,
    "state_code": "04",
    "state_name": "West Azarbaijan",
    "country_id": 103,
    "country_code": "IR",
    "country_name": "Iran",
    "latitude": 39.3909326,
    "longitude": 44.3732159,
    "native": "بازرگان",
    "timezone": "Asia/Tehran",
    "wikiDataId": "Q935419"
  },
  {
    "id": 134829,
    "name": "Bukan",
    "state_id": 3924,
    "state_code": "04",
    "state_name": "West Azarbaijan",
    "country_id": 103,
    "country_code": "IR",
    "country_name": "Iran",
    "latitude": 36.521,
    "longitude": 46.1303018,
    "native": "بوکان",
    "timezone": "Asia/Tehran",
    "wikiDataId": "Q606564"
  },
  {
    "id": 134836,
    "name": "Chaldoran",
    "state_id": 3924,
    "state_code": "04",
    "state_name": "West Azarbaijan",
    "country_id": 103,
    "country_code": "IR",
    "country_name": "Iran",
    "latitude": 39.06667,
    "longitude": 44.33333,
    "native": "چالدران",
    "timezone": "Asia/Tehran",
    "wikiDataId": "Q498106"
  },
  {
    "id": 150182,
    "name": "Charburj",
    "state_id": 3924,
    "state_code": "04",
    "state_name": "West Azarbaijan",
    "country_id": 103,
    "country_code": "IR",
    "country_name": "Iran",
    "latitude": 37.1218792,
    "longitude": 45.958986,
    "native": "چاربرج",
    "timezone": "Asia/Tehran",
    "wikiDataId": null
  },
  {
    "id": 134611,
    "name": "Chaypareh",
    "state_id": 3924,
    "state_code": "04",
    "state_name": "West Azarbaijan",
    "country_id": 103,
    "country_code": "IR",
    "country_name": "Iran",
    "latitude": 38.86667,
    "longitude": 45.0,
    "native": "چایپاره",
    "timezone": "Asia/Tehran",
    "wikiDataId": "Q862547"
  },
  {
    "id": 150168,
    "name": "Dizaj Diz",
    "state_id": 3924,
    "state_code": "04",
    "state_name": "West Azarbaijan",
    "country_id": 103,
    "country_code": "IR",
    "country_name": "Iran",
    "latitude": 38.4612821,
    "longitude": 45.0072525,
    "native": "دیزج دیز",
    "timezone": "Asia/Tehran",
    "wikiDataId": "Q114107"
  },
  {
    "id": 150166,
    "name": "Evogli",
    "state_id": 3924,
    "state_code": "04",
    "state_name": "West Azarbaijan",
    "country_id": 103,
    "country_code": "IR",
    "country_name": "Iran",
    "latitude": 38.7113992,
    "longitude": 45.1979041,
    "native": "اوجلی",
    "timezone": "Asia/Tehran",
    "wikiDataId": null
  },
  {
    "id": 150170,
    "name": "Firuraq",
    "state_id": 3924,
    "state_code": "04",
    "state_name": "West Azarbaijan",
    "country_id": 103,
    "country_code": "IR",
    "country_name": "Iran",
    "latitude": 38.5806101,
    "longitude": 44.8403548,
    "native": "فیروانق",
    "timezone": "Asia/Tehran",
    "wikiDataId": "Q2620832"
  },
  {
    "id": 150163,
    "name": "Gerd Kashaneh",
    "state_id": 3924,
    "state_code": "04",
    "state_name": "West Azarbaijan",
    "country_id": 103,
    "country_code": "IR",
    "country_name": "Iran",
    "latitude": 36.8113629,
    "longitude": 45.247643,
    "native": "گرد کاشانه",
    "timezone": "Asia/Tehran",
    "wikiDataId": "Q4358518"
  },
  {
    "id": 150175,
    "name": "Keshavarz",
    "state_id": 3924,
    "state_code": "04",
    "state_name": "West Azarbaijan",
    "country_id": 103,
    "country_code": "IR",
    "country_name": "Iran",
    "latitude": 36.8348605,
    "longitude": 46.3500952,
    "native": "کشاورز",
    "timezone": "Asia/Tehran",
    "wikiDataId": "Q6394999"
  },
  {
    "id": 150180,
    "name": "Khalifan",
    "state_id": 3924,
    "state_code": "04",
    "state_name": "West Azarbaijan",
    "country_id": 103,
    "country_code": "IR",
    "country_name": "Iran",
    "latitude": 36.506816,
    "longitude": 45.7909084,
    "native": "خلیفان",
    "timezone": "Asia/Tehran",
    "wikiDataId": "Q16462973"
  },
  {
    "id": 134676,
    "name": "Khowy",
    "state_id": 3924,
    "state_code": "04",
    "state_name": "West Azarbaijan",
    "country_id": 103,
    "country_code": "IR",
    "country_name": "Iran",
    "latitude": 38.5503,
    "longitude": 44.9521,
    "native": "خوی",
    "timezone": "Asia/Tehran",
    "wikiDataId": "Q605105"
  },
  {
    "id": 150167,
    "name": "Khoy",
    "state_id": 3924,
    "state_code": "04",
    "state_name": "West Azarbaijan",
    "country_id": 103,
    "country_code": "IR",
    "country_name": "Iran",
    "latitude": 38.5484923,
    "longitude": 44.9166149,
    "native": "خوی",
    "timezone": "Asia/Tehran",
    "wikiDataId": "Q605105"
  },
  {
    "id": 134949,
    "name": "Mahabad",
    "state_id": 3924,
    "state_code": "04",
    "state_name": "West Azarbaijan",
    "country_id": 103,
    "country_code": "IR",
    "country_name": "Iran",
    "latitude": 36.76667,
    "longitude": 45.73333,
    "native": "مهاباد",
    "timezone": "Asia/Tehran",
    "wikiDataId": "Q335518"
  },
  {
    "id": 150176,
    "name": "Mahmoodabad",
    "state_id": 3924,
    "state_code": "04",
    "state_name": "West Azarbaijan",
    "country_id": 103,
    "country_code": "IR",
    "country_name": "Iran",
    "latitude": 36.7141379,
    "longitude": 46.4916487,
    "native": "محمودآباد",
    "timezone": "Asia/Tehran",
    "wikiDataId": "Q1166507"
  },
  {
    "id": 134967,
    "name": "Maku",
    "state_id": 3924,
    "state_code": "04",
    "state_name": "West Azarbaijan",
    "country_id": 103,
    "country_code": "IR",
    "country_name": "Iran",
    "latitude": 39.41669,
    "longitude": 44.58336,
    "native": "ماکو",
    "timezone": "Asia/Tehran",
    "wikiDataId": "Q1264551"
  },
  {
    "id": 150178,
    "name": "Marganlar",
    "state_id": 3924,
    "state_code": "04",
    "state_name": "West Azarbaijan",
    "country_id": 103,
    "country_code": "IR",
    "country_name": "Iran",
    "latitude": 39.1431389,
    "longitude": 44.9298762,
    "native": "مرگنلار",
    "timezone": "Asia/Tehran",
    "wikiDataId": "Q5700869"
  },
  {
    "id": 134706,
    "name": "Miandoab",
    "state_id": 3924,
    "state_code": "04",
    "state_name": "West Azarbaijan",
    "country_id": 103,
    "country_code": "IR",
    "country_name": "Iran",
    "latitude": 36.96667,
    "longitude": 46.10961,
    "native": "میاندوآب",
    "timezone": "Asia/Tehran",
    "wikiDataId": "Q605033"
  },
  {
    "id": 150173,
    "name": "Mirabad",
    "state_id": 3924,
    "state_code": "04",
    "state_name": "West Azarbaijan",
    "country_id": 103,
    "country_code": "IR",
    "country_name": "Iran",
    "latitude": 36.4059131,
    "longitude": 45.3620982,
    "native": "میرآباد",
    "timezone": "Asia/Tehran",
    "wikiDataId": "Q5715446"
  },
  {
    "id": 150183,
    "name": "Mohammadyar",
    "state_id": 3924,
    "state_code": "04",
    "state_name": "West Azarbaijan",
    "country_id": 103,
    "country_code": "IR",
    "country_name": "Iran",
    "latitude": 36.983511,
    "longitude": 45.5103493,
    "native": "محمدیار",
    "timezone": "Asia/Tehran",
    "wikiDataId": "Q4371143"
  },
  {
    "id": 150160,
    "name": "Nalous",
    "state_id": 3924,
    "state_code": "04",
    "state_name": "West Azarbaijan",
    "country_id": 103,
    "country_code": "IR",
    "country_name": "Iran",
    "latitude": 36.9838115,
    "longitude": 45.1396036,
    "native": "نالوس",
    "timezone": "Asia/Tehran",
    "wikiDataId": "Q4371198"
  },
  {
    "id": 134708,
    "name": "Naqadeh",
    "state_id": 3924,
    "state_code": "04",
    "state_name": "West Azarbaijan",
    "country_id": 103,
    "country_code": "IR",
    "country_name": "Iran",
    "latitude": 36.9553,
    "longitude": 45.388,
    "native": "نقده",
    "timezone": "Asia/Tehran",
    "wikiDataId": "Q1820789"
  },
  {
    "id": 150162,
    "name": "Nazok-e Olya",
    "state_id": 3924,
    "state_code": "04",
    "state_name": "West Azarbaijan",
    "country_id": 103,
    "country_code": "IR",
    "country_name": "Iran",
    "latitude": 39.0102301,
    "longitude": 45.050919,
    "native": "نازک علیا",
    "timezone": "Asia/Tehran",
    "wikiDataId": "Q15261272"
  },
  {
    "id": 150158,
    "name": "Noshin",
    "state_id": 3924,
    "state_code": "04",
    "state_name": "West Azarbaijan",
    "country_id": 103,
    "country_code": "IR",
    "country_name": "Iran",
    "latitude": 37.7320977,
    "longitude": 45.0382803,
    "native": "نوشین",
    "timezone": "Asia/Tehran",
    "wikiDataId": null
  },
  {
    "id": 150159,
    "name": "Oshnavieh",
    "state_id": 3924,
    "state_code": "04",
    "state_name": "West Azarbaijan",
    "country_id": 103,
    "country_code": "IR",
    "country_name": "Iran",
    "latitude": 37.035787,
    "longitude": 45.0818394,
    "native": "اشنویه",
    "timezone": "Asia/Tehran",
    "wikiDataId": "Q720699"
  },
  {
    "id": 134725,
    "name": "Oshnaviyeh",
    "state_id": 3924,
    "state_code": "04",
    "state_name": "West Azarbaijan",
    "country_id": 103,
    "country_code": "IR",
    "country_name": "Iran",
    "latitude": 37.0397,
    "longitude": 45.0983,
    "native": "اشنویه",
    "timezone": "Asia/Tehran",
    "wikiDataId": "Q720699"
  },
  {
    "id": 134727,
    "name": "Piranshahr",
    "state_id": 3924,
    "state_code": "04",
    "state_name": "West Azarbaijan",
    "country_id": 103,
    "country_code": "IR",
    "country_name": "Iran",
    "latitude": 36.701,
    "longitude": 45.1413,
    "native": "پیرانشهر",
    "timezone": "Asia/Tehran",
    "wikiDataId": "Q3015863"
  },
  {
    "id": 134729,
    "name": "Poldasht",
    "state_id": 3924,
    "state_code": "04",
    "state_name": "West Azarbaijan",
    "country_id": 103,
    "country_code": "IR",
    "country_name": "Iran",
    "latitude": 39.348,
    "longitude": 45.071,
    "native": "پلدشت",
    "timezone": "Asia/Tehran",
    "wikiDataId": "Q2556849"
  },
  {
    "id": 134736,
    "name": "Qarahziyaeddin",
    "state_id": 3924,
    "state_code": "04",
    "state_name": "West Azarbaijan",
    "country_id": 103,
    "country_code": "IR",
    "country_name": "Iran",
    "latitude": 38.8915,
    "longitude": 45.0255,
    "native": "قره ضیاءالدین",
    "timezone": "Asia/Tehran",
    "wikiDataId": "Q862549"
  },
  {
    "id": 150171,
    "name": "Qotur",
    "state_id": 3924,
    "state_code": "04",
    "state_name": "West Azarbaijan",
    "country_id": 103,
    "country_code": "IR",
    "country_name": "Iran",
    "latitude": 38.4653804,
    "longitude": 44.3881129,
    "native": "قطور",
    "timezone": "Asia/Tehran",
    "wikiDataId": "Q5731263"
  },
  {
    "id": 150157,
    "name": "Qushchi",
    "state_id": 3924,
    "state_code": "04",
    "state_name": "West Azarbaijan",
    "country_id": 103,
    "country_code": "IR",
    "country_name": "Iran",
    "latitude": 37.9896341,
    "longitude": 45.0270581,
    "native": "قوشچی",
    "timezone": "Asia/Tehran",
    "wikiDataId": "Q339178"
  },
  {
    "id": 150172,
    "name": "Rabat",
    "state_id": 3924,
    "state_code": "04",
    "state_name": "West Azarbaijan",
    "country_id": 103,
    "country_code": "IR",
    "country_name": "Iran",
    "latitude": 36.208333,
    "longitude": 45.55,
    "native": "رباط",
    "timezone": "Asia/Tehran",
    "wikiDataId": "Q3551"
  },
  {
    "id": 134763,
    "name": "Salmas",
    "state_id": 3924,
    "state_code": "04",
    "state_name": "West Azarbaijan",
    "country_id": 103,
    "country_code": "IR",
    "country_name": "Iran",
    "latitude": 38.1973,
    "longitude": 44.7653,
    "native": "سلماس",
    "timezone": "Asia/Tehran",
    "wikiDataId": "Q765806"
  },
  {
    "id": 134768,
    "name": "Sardasht",
    "state_id": 3924,
    "state_code": "04",
    "state_name": "West Azarbaijan",
    "country_id": 103,
    "country_code": "IR",
    "country_name": "Iran",
    "latitude": 36.2167,
    "longitude": 45.4832,
    "native": "سردشت",
    "timezone": "Asia/Tehran",
    "wikiDataId": "Q765536"
  },
  {
    "id": 150155,
    "name": "Serow",
    "state_id": 3924,
    "state_code": "04",
    "state_name": "West Azarbaijan",
    "country_id": 103,
    "country_code": "IR",
    "country_name": "Iran",
    "latitude": 37.7275,
    "longitude": 44.642778,
    "native": "سرو",
    "timezone": "Asia/Tehran",
    "wikiDataId": "Q1140380"
  },
  {
    "id": 135110,
    "name": "Shahin Dej",
    "state_id": 3924,
    "state_code": "04",
    "state_name": "West Azarbaijan",
    "country_id": 103,
    "country_code": "IR",
    "country_name": "Iran",
    "latitude": 36.6793,
    "longitude": 46.5669,
    "native": "شاهین دژ",
    "timezone": "Asia/Tehran",
    "wikiDataId": "Q862551"
  },
  {
    "id": 150177,
    "name": "Showt",
    "state_id": 3924,
    "state_code": "04",
    "state_name": "West Azarbaijan",
    "country_id": 103,
    "country_code": "IR",
    "country_name": "Iran",
    "latitude": 39.2209468,
    "longitude": 44.7491597,
    "native": "شوت",
    "timezone": "Asia/Tehran",
    "wikiDataId": "Q2575075"
  },
  {
    "id": 150165,
    "name": "Siah Cheshmeh",
    "state_id": 3924,
    "state_code": "04",
    "state_name": "West Azarbaijan",
    "country_id": 103,
    "country_code": "IR",
    "country_name": "Iran",
    "latitude": 39.064678,
    "longitude": 44.3694447,
    "native": "سیاه چشمه",
    "timezone": "Asia/Tehran",
    "wikiDataId": "Q10296798"
  },
  {
    "id": 150156,
    "name": "Silvana",
    "state_id": 3924,
    "state_code": "04",
    "state_name": "West Azarbaijan",
    "country_id": 103,
    "country_code": "IR",
    "country_name": "Iran",
    "latitude": 37.4222616,
    "longitude": 44.8499679,
    "native": "سیلوانا",
    "timezone": "Asia/Tehran",
    "wikiDataId": "Q831559"
  },
  {
    "id": 150161,
    "name": "Simmineh",
    "state_id": 3924,
    "state_code": "04",
    "state_name": "West Azarbaijan",
    "country_id": 103,
    "country_code": "IR",
    "country_name": "Iran",
    "latitude": 36.729722,
    "longitude": 46.151111,
    "native": "سیمینه",
    "timezone": "Asia/Tehran",
    "wikiDataId": "Q4358681"
  },
  {
    "id": 135128,
    "name": "Takab",
    "state_id": 3924,
    "state_code": "04",
    "state_name": "West Azarbaijan",
    "country_id": 103,
    "country_code": "IR",
    "country_name": "Iran",
    "latitude": 36.4009,
    "longitude": 47.1133,
    "native": "تکاب",
    "timezone": "Asia/Tehran",
    "wikiDataId": "Q766617"
  },
  {
    "id": 150174,
    "name": "Taze Shar",
    "state_id": 3924,
    "state_code": "04",
    "state_name": "West Azarbaijan",
    "country_id": 103,
    "country_code": "IR",
    "country_name": "Iran",
    "latitude": 38.1766875,
    "longitude": 44.6837782,
    "native": "تازه شار",
    "timezone": "Asia/Tehran",
    "wikiDataId": null
  },
  {
    "id": 134724,
    "name": "Urmia",
    "state_id": 3924,
    "state_code": "04",
    "state_name": "West Azarbaijan",
    "country_id": 103,
    "country_code": "IR",
    "country_name": "Iran",
    "latitude": 37.55274,
    "longitude": 45.07605,
    "native": "ارومیه",
    "timezone": "Asia/Tehran",
    "wikiDataId": "Q179665"
  },
  {
    "id": 150169,
    "name": "Zurabad",
    "state_id": 3924,
    "state_code": "04",
    "state_name": "West Azarbaijan",
    "country_id": 103,
    "country_code": "IR",
    "country_name": "Iran",
    "latitude": 38.8022005,
    "longitude": 44.5770691,
    "native": "زورآباد",
    "timezone": "Asia/Tehran",
    "wikiDataId": "Q8075364"
  }
]