[
  {
    "id": 150733,
    "name": "Armardeh",
    "state_id": 3935,
    "state_code": "12",
    "state_name": "Kurdistan",
    "country_id": 103,
    "country_code": "IR",
    "country_name": "Iran",
    "latitude": 35.9322461,
    "longitude": 45.7913804,
    "native": "آرمرده",
    "timezone": "Asia/Tehran",
    "wikiDataId": "Q4371178"
  },
  {
    "id": 150736,
    "name": "Babarashani",
    "state_id": 3935,
    "state_code": "12",
    "state_name": "Kurdistan",
    "country_id": 103,
    "country_code": "IR",
    "country_name": "Iran",
    "latitude": 35.6781715,
    "longitude": 47.7938533,
    "native": "بابارشانی",
    "timezone": "Asia/Tehran",
    "wikiDataId": "Q4359590"
  },
  {
    "id": 134600,
    "name": "Baneh",
    "state_id": 3935,
    "state_code": "12",
    "state_name": "Kurdistan",
    "country_id": 103,
    "country_code": "IR",
    "country_name": "Iran",
    "latitude": 35.9975,
    "longitude": 45.8853,
    "native": "بانه",
    "timezone": "Asia/Tehran",
    "wikiDataId": "Q643430"
  },
  {
    "id": 150749,
    "name": "Bardeh Rasheh",
    "state_id": 3935,
    "state_code": "12",
    "state_name": "Kurdistan",
    "country_id": 103,
    "country_code": "IR",
    "country_name": "Iran",
    "latitude": 35.5932421,
    "longitude": 46.0839732,
    "native": "برده‌راشه",
    "timezone": "Asia/Tehran",
    "wikiDataId": "Q16255644"
  },
  {
    "id": 134601,
    "name": "Bijar",
    "state_id": 3935,
    "state_code": "12",
    "state_name": "Kurdistan",
    "country_id": 103,
    "country_code": "IR",
    "country_name": "Iran",
    "latitude": 35.8668,
    "longitude": 47.60506,
    "native": "بیجار",
    "timezone": "Asia/Tehran",
    "wikiDataId": "Q720596"
  },
  {
    "id": 150734,
    "name": "Boeen-e-Sofla",
    "state_id": 3935,
    "state_code": "12",
    "state_name": "Kurdistan",
    "country_id": 103,
    "country_code": "IR",
    "country_name": "Iran",
    "latitude": 35.938214,
    "longitude": 45.9323787,
    "native": "بوئین سفلی",
    "timezone": "Asia/Tehran",
    "wikiDataId": null
  },
  {
    "id": 150740,
    "name": "Bolbanabad",
    "state_id": 3935,
    "state_code": "12",
    "state_name": "Kurdistan",
    "country_id": 103,
    "country_code": "IR",
    "country_name": "Iran",
    "latitude": 35.1386482,
    "longitude": 47.3080861,
    "native": "بلبان‌آباد",
    "timezone": "Asia/Tehran",
    "wikiDataId": "Q2423501"
  },
  {
    "id": 150750,
    "name": "Chnare",
    "state_id": 3935,
    "state_code": "12",
    "state_name": "Kurdistan",
    "country_id": 103,
    "country_code": "IR",
    "country_name": "Iran",
    "latitude": 35.6324478,
    "longitude": 46.3042832,
    "native": "چناره",
    "timezone": "Asia/Tehran",
    "wikiDataId": null
  },
  {
    "id": 134846,
    "name": "Dehgolan",
    "state_id": 3935,
    "state_code": "12",
    "state_name": "Kurdistan",
    "country_id": 103,
    "country_code": "IR",
    "country_name": "Iran",
    "latitude": 35.35,
    "longitude": 47.35,
    "native": "دهگلان",
    "timezone": "Asia/Tehran",
    "wikiDataId": "Q498106"
  },
  {
    "id": 150746,
    "name": "Delbaran",
    "state_id": 3935,
    "state_code": "12",
    "state_name": "Kurdistan",
    "country_id": 103,
    "country_code": "IR",
    "country_name": "Iran",
    "latitude": 35.2372082,
    "longitude": 47.9753832,
    "native": "دلبران",
    "timezone": "Asia/Tehran",
    "wikiDataId": "Q2624765"
  },
  {
    "id": 150745,
    "name": "Dezej",
    "state_id": 3935,
    "state_code": "12",
    "state_name": "Kurdistan",
    "country_id": 103,
    "country_code": "IR",
    "country_name": "Iran",
    "latitude": 35.0646732,
    "longitude": 47.9590989,
    "native": "دزج",
    "timezone": "Asia/Tehran",
    "wikiDataId": "Q2422931"
  },
  {
    "id": 134854,
    "name": "Divandarreh",
    "state_id": 3935,
    "state_code": "12",
    "state_name": "Kurdistan",
    "country_id": 103,
    "country_code": "IR",
    "country_name": "Iran",
    "latitude": 35.91667,
    "longitude": 47.0,
    "native": "دیواندره",
    "timezone": "Asia/Tehran",
    "wikiDataId": "Q498106"
  },
  {
    "id": 150739,
    "name": "Hasanabad Yasukand",
    "state_id": 3935,
    "state_code": "12",
    "state_name": "Kurdistan",
    "country_id": 103,
    "country_code": "IR",
    "country_name": "Iran",
    "latitude": 36.2838361,
    "longitude": 47.7375081,
    "native": "حسن‌آباد یاسوکند",
    "timezone": "Asia/Tehran",
    "wikiDataId": null
  },
  {
    "id": 134682,
    "name": "Kamyaran",
    "state_id": 3935,
    "state_code": "12",
    "state_name": "Kurdistan",
    "country_id": 103,
    "country_code": "IR",
    "country_name": "Iran",
    "latitude": 34.7956,
    "longitude": 46.9355,
    "native": "کامیاران",
    "timezone": "Asia/Tehran",
    "wikiDataId": "Q720616"
  },
  {
    "id": 150751,
    "name": "Kani Dinar",
    "state_id": 3935,
    "state_code": "12",
    "state_name": "Kurdistan",
    "country_id": 103,
    "country_code": "IR",
    "country_name": "Iran",
    "latitude": 35.4632302,
    "longitude": 46.2074984,
    "native": "کانی دینار",
    "timezone": "Asia/Tehran",
    "wikiDataId": "Q348737"
  },
  {
    "id": 150735,
    "name": "Kani Sur",
    "state_id": 3935,
    "state_code": "12",
    "state_name": "Kurdistan",
    "country_id": 103,
    "country_code": "IR",
    "country_name": "Iran",
    "latitude": 36.2148132,
    "longitude": 46.8119073,
    "native": "کانی سور",
    "timezone": "Asia/Tehran",
    "wikiDataId": "Q4364044"
  },
  {
    "id": 134697,
    "name": "Marivan",
    "state_id": 3935,
    "state_code": "12",
    "state_name": "Kurdistan",
    "country_id": 103,
    "country_code": "IR",
    "country_name": "Iran",
    "latitude": 35.51829,
    "longitude": 46.18298,
    "native": "مریوان",
    "timezone": "Asia/Tehran",
    "wikiDataId": "Q631517"
  },
  {
    "id": 150748,
    "name": "Muchesh",
    "state_id": 3935,
    "state_code": "12",
    "state_name": "Kurdistan",
    "country_id": 103,
    "country_code": "IR",
    "country_name": "Iran",
    "latitude": 35.0582268,
    "longitude": 47.1461105,
    "native": "موچش",
    "timezone": "Asia/Tehran",
    "wikiDataId": "Q2423410"
  },
  {
    "id": 150737,
    "name": "Pir Taj",
    "state_id": 3935,
    "state_code": "12",
    "state_name": "Kurdistan",
    "country_id": 103,
    "country_code": "IR",
    "country_name": "Iran",
    "latitude": 35.7762981,
    "longitude": 48.1116752,
    "native": "پیرتاج",
    "timezone": "Asia/Tehran",
    "wikiDataId": "Q5868441"
  },
  {
    "id": 134745,
    "name": "Qorveh",
    "state_id": 3935,
    "state_code": "12",
    "state_name": "Kurdistan",
    "country_id": 103,
    "country_code": "IR",
    "country_name": "Iran",
    "latitude": 35.1664,
    "longitude": 47.80564,
    "native": "قروه",
    "timezone": "Asia/Tehran",
    "wikiDataId": "Q765594"
  },
  {
    "id": 150743,
    "name": "Saheb",
    "state_id": 3935,
    "state_code": "12",
    "state_name": "Kurdistan",
    "country_id": 103,
    "country_code": "IR",
    "country_name": "Iran",
    "latitude": 36.2029011,
    "longitude": 46.4532851,
    "native": "صاحب",
    "timezone": "Asia/Tehran",
    "wikiDataId": "Q1753329"
  },
  {
    "id": 134765,
    "name": "Sanandaj",
    "state_id": 3935,
    "state_code": "12",
    "state_name": "Kurdistan",
    "country_id": 103,
    "country_code": "IR",
    "country_name": "Iran",
    "latitude": 35.31495,
    "longitude": 46.99883,
    "native": "سنندج",
    "timezone": "Asia/Tehran",
    "wikiDataId": "Q272093"
  },
  {
    "id": 134766,
    "name": "Saqqez",
    "state_id": 3935,
    "state_code": "12",
    "state_name": "Kurdistan",
    "country_id": 103,
    "country_code": "IR",
    "country_name": "Iran",
    "latitude": 36.24992,
    "longitude": 46.2735,
    "native": "سقز",
    "timezone": "Asia/Tehran",
    "wikiDataId": "Q348972"
  },
  {
    "id": 135027,
    "name": "Sarvabad",
    "state_id": 3935,
    "state_code": "12",
    "state_name": "Kurdistan",
    "country_id": 103,
    "country_code": "IR",
    "country_name": "Iran",
    "latitude": 35.25,
    "longitude": 46.33333,
    "native": "سروآباد",
    "timezone": "Asia/Tehran",
    "wikiDataId": "Q5099954"
  },
  {
    "id": 150747,
    "name": "Serish Abad",
    "state_id": 3935,
    "state_code": "12",
    "state_name": "Kurdistan",
    "country_id": 103,
    "country_code": "IR",
    "country_name": "Iran",
    "latitude": 35.2496313,
    "longitude": 47.7696704,
    "native": "سریش‌آباد",
    "timezone": "Asia/Tehran",
    "wikiDataId": null
  },
  {
    "id": 150744,
    "name": "Shuyesheh",
    "state_id": 3935,
    "state_code": "12",
    "state_name": "Kurdistan",
    "country_id": 103,
    "country_code": "IR",
    "country_name": "Iran",
    "latitude": 35.356996,
    "longitude": 46.6732263,
    "native": "شویشه",
    "timezone": "Asia/Tehran",
    "wikiDataId": "Q348726"
  },
  {
    "id": 150738,
    "name": "Tup Aghaj",
    "state_id": 3935,
    "state_code": "12",
    "state_name": "Kurdistan",
    "country_id": 103,
    "country_code": "IR",
    "country_name": "Iran",
    "latitude": 36.0482963,
    "longitude": 47.8175416,
    "native": "توپ آغاج",
    "timezone": "Asia/Tehran",
    "wikiDataId": "Q5674095"
  },
  {
    "id": 150742,
    "name": "Uraman Takht",
    "state_id": 3935,
    "state_code": "12",
    "state_name": "Kurdistan",
    "country_id": 103,
    "country_code": "IR",
    "country_name": "Iran",
    "latitude": 35.2528212,
    "longitude": 46.2591577,
    "native": "اورامان تخت",
    "timezone": "Asia/Tehran",
    "wikiDataId": "Q5957064"
  },
  {
    "id": 150741,
    "name": "Zarrineh",
    "state_id": 3935,
    "state_code": "12",
    "state_name": "Kurdistan",
    "country_id": 103,
    "country_code": "IR",
    "country_name": "Iran",
    "latitude": 36.0605308,
    "longitude": 46.9118356,
    "native": "زرینه",
    "timezone": "Asia/Tehran",
    "wikiDataId": "Q3675850"
  }
]
