[
  {
    "id": 150585,
    "name": "Amiriyeh",
    "state_id": 3940,
    "state_code": "20",
    "state_name": "Semnan",
    "country_id": 103,
    "country_code": "IR",
    "country_name": "Iran",
    "latitude": 36.0287295,
    "longitude": 54.1354182,
    "native": "امیریه",
    "timezone": "Asia/Tehran",
    "wikiDataId": "Q2428473"
  },
  {
    "id": 150583,
    "name": "Aradan",
    "state_id": 3940,
    "state_code": "20",
    "state_name": "Semnan",
    "country_id": 103,
    "country_code": "IR",
    "country_name": "Iran",
    "latitude": 35.2481488,
    "longitude": 52.4864042,
    "native": "آرادان",
    "timezone": "Asia/Tehran",
    "wikiDataId": "Q14324128"
  },
  {
    "id": 150589,
    "name": "Bastam",
    "state_id": 3940,
    "state_code": "20",
    "state_name": "Semnan",
    "country_id": 103,
    "country_code": "IR",
    "country_name": "Iran",
    "latitude": 36.4843908,
    "longitude": 54.9907135,
    "native": "بسطام",
    "timezone": "Asia/Tehran",
    "wikiDataId": "Q720677"
  },
  {
    "id": 150590,
    "name": "Biyārjomand",
    "state_id": 3940,
    "state_code": "20",
    "state_name": "Semnan",
    "country_id": 103,
    "country_code": "IR",
    "country_name": "Iran",
    "latitude": 36.0817586,
    "longitude": 55.7999897,
    "native": "بیارجمند",
    "timezone": "Asia/Tehran",
    "wikiDataId": null
  },
  {
    "id": 134625,
    "name": "Damghan",
    "state_id": 3940,
    "state_code": "20",
    "state_name": "Semnan",
    "country_id": 103,
    "country_code": "IR",
    "country_name": "Iran",
    "latitude": 36.1679,
    "longitude": 54.34292,
    "native": "دامغان",
    "timezone": "Asia/Tehran",
    "wikiDataId": "Q720053"
  },
  {
    "id": 150596,
    "name": "Darjazin",
    "state_id": 3940,
    "state_code": "20",
    "state_name": "Semnan",
    "country_id": 103,
    "country_code": "IR",
    "country_name": "Iran",
    "latitude": 35.6284753,
    "longitude": 53.3081954,
    "native": "درجزین",
    "timezone": "Asia/Tehran",
    "wikiDataId": "Q2423440"
  },
  {
    "id": 150586,
    "name": "Dibaj",
    "state_id": 3940,
    "state_code": "20",
    "state_name": "Semnan",
    "country_id": 103,
    "country_code": "IR",
    "country_name": "Iran",
    "latitude": 36.4294828,
    "longitude": 54.2192996,
    "native": "دیباج",
    "timezone": "Asia/Tehran",
    "wikiDataId": "Q2626271"
  },
  {
    "id": 150595,
    "name": "Eyvanekey",
    "state_id": 3940,
    "state_code": "20",
    "state_name": "Semnan",
    "country_id": 103,
    "country_code": "IR",
    "country_name": "Iran",
    "latitude": 35.3444567,
    "longitude": 52.0607547,
    "native": "ایوانکی",
    "timezone": "Asia/Tehran",
    "wikiDataId": "Q2423398"
  },
  {
    "id": 134880,
    "name": "Garmsar",
    "state_id": 3940,
    "state_code": "20",
    "state_name": "Semnan",
    "country_id": 103,
    "country_code": "IR",
    "country_name": "Iran",
    "latitude": 34.96362,
    "longitude": 52.2127,
    "native": "گرمسار",
    "timezone": "Asia/Tehran",
    "wikiDataId": "Q795092"
  },
  {
    "id": 150593,
    "name": "Kalāte Khij",
    "state_id": 3940,
    "state_code": "20",
    "state_name": "Semnan",
    "country_id": 103,
    "country_code": "IR",
    "country_name": "Iran",
    "latitude": 36.672428,
    "longitude": 55.2909064,
    "native": "کلاته خیج",
    "timezone": "Asia/Tehran",
    "wikiDataId": null
  },
  {
    "id": 150587,
    "name": "Kalāteh",
    "state_id": 3940,
    "state_code": "20",
    "state_name": "Semnan",
    "country_id": 103,
    "country_code": "IR",
    "country_name": "Iran",
    "latitude": 36.3555379,
    "longitude": 54.1363334,
    "native": "کلاته",
    "timezone": "Asia/Tehran",
    "wikiDataId": null
  },
  {
    "id": 150584,
    "name": "Kohanabad",
    "state_id": 3940,
    "state_code": "20",
    "state_name": "Semnan",
    "country_id": 103,
    "country_code": "IR",
    "country_name": "Iran",
    "latitude": 35.2213342,
    "longitude": 52.510717,
    "native": "کهن‌آباد",
    "timezone": "Asia/Tehran",
    "wikiDataId": "Q6425913"
  },
  {
    "id": 150598,
    "name": "Mahdi Shahr",
    "state_id": 3940,
    "state_code": "20",
    "state_name": "Semnan",
    "country_id": 103,
    "country_code": "IR",
    "country_name": "Iran",
    "latitude": 35.7073452,
    "longitude": 53.2507944,
    "native": "مهدیشهر",
    "timezone": "Asia/Tehran",
    "wikiDataId": null
  },
  {
    "id": 134958,
    "name": "Mayamey",
    "state_id": 3940,
    "state_code": "20",
    "state_name": "Semnan",
    "country_id": 103,
    "country_code": "IR",
    "country_name": "Iran",
    "latitude": 36.63333,
    "longitude": 55.95,
    "native": "میامی",
    "timezone": "Asia/Tehran",
    "wikiDataId": "Q1264551"
  },
  {
    "id": 150594,
    "name": "Mojen",
    "state_id": 3940,
    "state_code": "20",
    "state_name": "Semnan",
    "country_id": 103,
    "country_code": "IR",
    "country_name": "Iran",
    "latitude": 36.4792235,
    "longitude": 54.6392584,
    "native": "موجن",
    "timezone": "Asia/Tehran",
    "wikiDataId": "Q2423572"
  },
  {
    "id": 150591,
    "name": "Rodian",
    "state_id": 3940,
    "state_code": "20",
    "state_name": "Semnan",
    "country_id": 103,
    "country_code": "IR",
    "country_name": "Iran",
    "latitude": 36.3504474,
    "longitude": 55.0012835,
    "native": "رودیان",
    "timezone": "Asia/Tehran",
    "wikiDataId": "Q2637978"
  },
  {
    "id": 134774,
    "name": "Semnan",
    "state_id": 3940,
    "state_code": "20",
    "state_name": "Semnan",
    "country_id": 103,
    "country_code": "IR",
    "country_name": "Iran",
    "latitude": 35.57691,
    "longitude": 53.39205,
    "native": "سمنان",
    "timezone": "Asia/Tehran",
    "wikiDataId": "Q203045"
  },
  {
    "id": 150597,
    "name": "Shahmirzad",
    "state_id": 3940,
    "state_code": "20",
    "state_name": "Semnan",
    "country_id": 103,
    "country_code": "IR",
    "country_name": "Iran",
    "latitude": 35.7701041,
    "longitude": 53.3180235,
    "native": "شاهمیرزاد",
    "timezone": "Asia/Tehran",
    "wikiDataId": "Q1026064"
  },
  {
    "id": 150592,
    "name": "Shahroud",
    "state_id": 3940,
    "state_code": "20",
    "state_name": "Semnan",
    "country_id": 103,
    "country_code": "IR",
    "country_name": "Iran",
    "latitude": 36.4057075,
    "longitude": 54.9388482,
    "native": "شاهرود",
    "timezone": "Asia/Tehran",
    "wikiDataId": "Q605002"
  },
  {
    "id": 135105,
    "name": "Shahrud",
    "state_id": 3940,
    "state_code": "20",
    "state_name": "Semnan",
    "country_id": 103,
    "country_code": "IR",
    "country_name": "Iran",
    "latitude": 36.41819,
    "longitude": 54.97628,
    "native": "شاهرود",
    "timezone": "Asia/Tehran",
    "wikiDataId": "Q605002"
  },
  {
    "id": 150588,
    "name": "Sorkheh",
    "state_id": 3940,
    "state_code": "20",
    "state_name": "Semnan",
    "country_id": 103,
    "country_code": "IR",
    "country_name": "Iran",
    "latitude": 35.4680054,
    "longitude": 53.2098112,
    "native": "سرخه",
    "timezone": "Asia/Tehran",
    "wikiDataId": "Q1776167"
  }
]
