[
  {
    "id": 150293,
    "name": "Asara",
    "state_id": 3929,
    "state_code": "30",
    "state_name": "Alborz",
    "country_id": 103,
    "country_code": "IR",
    "country_name": "Iran",
    "latitude": 36.0391312,
    "longitude": 51.1908709,
    "native": "آسارا",
    "timezone": "Asia/Tehran",
    "wikiDataId": "Q2625230"
  },
  {
    "id": 150288,
    "name": "Charbagh",
    "state_id": 3929,
    "state_code": "30",
    "state_name": "Alborz",
    "country_id": 103,
    "country_code": "IR",
    "country_name": "Iran",
    "latitude": 35.8406028,
    "longitude": 50.839448,
    "native": "چهارباغ",
    "timezone": "Asia/Tehran",
    "wikiDataId": "Q2458241"
  },
  {
    "id": 134858,
    "name": "Eshtehard",
    "state_id": 3929,
    "state_code": "30",
    "state_name": "Alborz",
    "country_id": 103,
    "country_code": "IR",
    "country_name": "Iran",
    "latitude": 35.72813,
    "longitude": 50.41422,
    "native": "اشتهارد",
    "timezone": "Asia/Tehran",
    "wikiDataId": "Q498106"
  },
  {
    "id": 134635,
    "name": "Fardis",
    "state_id": 3929,
    "state_code": "30",
    "state_name": "Alborz",
    "country_id": 103,
    "country_code": "IR",
    "country_name": "Iran",
    "latitude": 35.72318,
    "longitude": 50.97865,
    "native": "فردیس",
    "timezone": "Asia/Tehran",
    "wikiDataId": "Q2423455"
  },
  {
    "id": 150295,
    "name": "Garmdareh",
    "state_id": 3929,
    "state_code": "30",
    "state_name": "Alborz",
    "country_id": 103,
    "country_code": "IR",
    "country_name": "Iran",
    "latitude": 35.7537176,
    "longitude": 51.0470722,
    "native": "گرمدره",
    "timezone": "Asia/Tehran",
    "wikiDataId": null
  },
  {
    "id": 150291,
    "name": "Golsar",
    "state_id": 3929,
    "state_code": "30",
    "state_name": "Alborz",
    "country_id": 103,
    "country_code": "IR",
    "country_name": "Iran",
    "latitude": 35.907778,
    "longitude": 50.7825,
    "native": "گلسار",
    "timezone": "Asia/Tehran",
    "wikiDataId": "Q20671697"
  },
  {
    "id": 150292,
    "name": "Hashtgerd",
    "state_id": 3929,
    "state_code": "30",
    "state_name": "Alborz",
    "country_id": 103,
    "country_code": "IR",
    "country_name": "Iran",
    "latitude": 35.961944,
    "longitude": 50.68,
    "native": "هشتگرد",
    "timezone": "Asia/Tehran",
    "wikiDataId": "Q720668"
  },
  {
    "id": 150289,
    "name": "Hashtgerd New City",
    "state_id": 3929,
    "state_code": "30",
    "state_name": "Alborz",
    "country_id": 103,
    "country_code": "IR",
    "country_name": "Iran",
    "latitude": 35.9832727,
    "longitude": 50.6852096,
    "native": "شهر جدید هشتگرد",
    "timezone": "Asia/Tehran",
    "wikiDataId": "Q720668"
  },
  {
    "id": 150294,
    "name": "Kamalshahr",
    "state_id": 3929,
    "state_code": "30",
    "state_name": "Alborz",
    "country_id": 103,
    "country_code": "IR",
    "country_name": "Iran",
    "latitude": 35.8823936,
    "longitude": 50.8434385,
    "native": "کمال‌شهر",
    "timezone": "Asia/Tehran",
    "wikiDataId": "Q2430914"
  },
  {
    "id": 134664,
    "name": "Karaj",
    "state_id": 3929,
    "state_code": "30",
    "state_name": "Alborz",
    "country_id": 103,
    "country_code": "IR",
    "country_name": "Iran",
    "latitude": 35.83266,
    "longitude": 50.99155,
    "native": "کرج",
    "timezone": "Asia/Tehran",
    "wikiDataId": "Q36529"
  },
  {
    "id": 150290,
    "name": "Koohsar",
    "state_id": 3929,
    "state_code": "30",
    "state_name": "Alborz",
    "country_id": 103,
    "country_code": "IR",
    "country_name": "Iran",
    "latitude": 35.9624264,
    "longitude": 50.7757828,
    "native": "کوهسار",
    "timezone": "Asia/Tehran",
    "wikiDataId": "Q2437207"
  },
  {
    "id": 150296,
    "name": "Mahdasht",
    "state_id": 3929,
    "state_code": "30",
    "state_name": "Alborz",
    "country_id": 103,
    "country_code": "IR",
    "country_name": "Iran",
    "latitude": 35.720408,
    "longitude": 50.7663625,
    "native": "مهدی‌آباد",
    "timezone": "Asia/Tehran",
    "wikiDataId": "Q2430889"
  },
  {
    "id": 150297,
    "name": "Mohammad Shahr",
    "state_id": 3929,
    "state_code": "30",
    "state_name": "Alborz",
    "country_id": 103,
    "country_code": "IR",
    "country_name": "Iran",
    "latitude": 35.7446897,
    "longitude": 50.8722777,
    "native": "محمدشهر",
    "timezone": "Asia/Tehran",
    "wikiDataId": null
  },
  {
    "id": 134710,
    "name": "Nazarabad",
    "state_id": 3929,
    "state_code": "30",
    "state_name": "Alborz",
    "country_id": 103,
    "country_code": "IR",
    "country_name": "Iran",
    "latitude": 35.95411,
    "longitude": 50.60607,
    "native": "نظرآباد",
    "timezone": "Asia/Tehran",
    "wikiDataId": "Q2570924"
  },
  {
    "id": 135051,
    "name": "Savojbolagh",
    "state_id": 3929,
    "state_code": "30",
    "state_name": "Alborz",
    "country_id": 103,
    "country_code": "IR",
    "country_name": "Iran",
    "latitude": 36.0,
    "longitude": 50.83333,
    "native": "ساوجبلاغ",
    "timezone": "Asia/Tehran",
    "wikiDataId": "Q1286233"
  },
  {
    "id": 135096,
    "name": "Taleqan",
    "state_id": 3929,
    "state_code": "30",
    "state_name": "Alborz",
    "country_id": 103,
    "country_code": "IR",
    "country_name": "Iran",
    "latitude": 36.20528,
    "longitude": 50.7761,
    "native": "طالقان",
    "timezone": "Asia/Tehran",
    "wikiDataId": "Q1277854"
  },
  {
    "id": 150298,
    "name": "Tankaman",
    "state_id": 3929,
    "state_code": "30",
    "state_name": "Alborz",
    "country_id": 103,
    "country_code": "IR",
    "country_name": "Iran",
    "latitude": 35.8915441,
    "longitude": 50.6059134,
    "native": "تنکمان",
    "timezone": "Asia/Tehran",
    "wikiDataId": "Q7683518"
  }
]
